[
  {
    "_comment": "Source: https://github.com/dr5hn/countries-states-cities-database",
    "Id": 1,
    "AddressCountryId": 248,
    "Name": "'Adan Governorate",
    "StateCode": "AD",
    "Latitude": "12.82574810",
    "Longitude": "44.79438040"
  },
  {
    "Id": 2,
    "AddressCountryId": 248,
    "Name": "'Amran Governorate",
    "StateCode": "AM",
    "Latitude": "16.25692140",
    "Longitude": "43.94367880"
  },
  {
    "Id": 3,
    "AddressCountryId": 194,
    "Name": "'Asir",
    "StateCode": "14",
    "Latitude": "19.09690620",
    "Longitude": "42.86378750"
  },
  {
    "Id": 4,
    "AddressCountryId": 191,
    "Name": "A'ana",
    "StateCode": "AA",
    "Latitude": "-13.89841800",
    "Longitude": "-171.97529950"
  },
  {
    "Id": 5,
    "AddressCountryId": 216,
    "Name": "Aargau",
    "StateCode": "AG",
    "Latitude": "47.38766640",
    "Longitude": "8.25542950"
  },
  {
    "Id": 6,
    "AddressCountryId": 235,
    "Name": "Aberdeen",
    "StateCode": "ABE",
    "Latitude": "57.14971700",
    "Longitude": "-2.09427800"
  },
  {
    "Id": 7,
    "AddressCountryId": 235,
    "Name": "Aberdeenshire",
    "StateCode": "ABD",
    "Latitude": "57.28687230",
    "Longitude": "-2.38156840"
  },
  {
    "Id": 8,
    "AddressCountryId": 160,
    "Name": "Abia",
    "StateCode": "AB",
    "Latitude": "5.45273540",
    "Longitude": "7.52484140"
  },
  {
    "Id": 9,
    "AddressCountryId": 53,
    "Name": "Abidjan",
    "StateCode": "AB",
    "Latitude": "5.35995170",
    "Longitude": "-4.00825630"
  },
  {
    "Id": 10,
    "AddressCountryId": 232,
    "Name": "Abim District",
    "StateCode": "314",
    "Latitude": "2.70669800",
    "Longitude": "33.65953370"
  },
  {
    "Id": 11,
    "AddressCountryId": 174,
    "Name": "Abra",
    "StateCode": "ABR",
    "Latitude": "42.49708300",
    "Longitude": "-96.38441000"
  },
  {
    "Id": 12,
    "AddressCountryId": 108,
    "Name": "Abruzzo",
    "StateCode": "65",
    "Latitude": "42.19201190",
    "Longitude": "13.72891670"
  },
  {
    "Id": 13,
    "AddressCountryId": 16,
    "Name": "Absheron District",
    "StateCode": "ABS",
    "Latitude": "40.36296930",
    "Longitude": "49.27368150"
  },
  {
    "Id": 14,
    "AddressCountryId": 234,
    "Name": "Abu Dhabi Emirate",
    "StateCode": "AZ",
    "Latitude": "24.45388400",
    "Longitude": "54.37734380"
  },
  {
    "Id": 15,
    "AddressCountryId": 160,
    "Name": "Abuja Federal Capital Territory",
    "StateCode": "FC",
    "Latitude": "8.89406910",
    "Longitude": "7.18604020"
  },
  {
    "Id": 16,
    "AddressCountryId": 248,
    "Name": "Abyan Governorate",
    "StateCode": "AB",
    "Latitude": "13.63434130",
    "Longitude": "46.05632120"
  },
  {
    "Id": 17,
    "AddressCountryId": 103,
    "Name": "Aceh",
    "StateCode": "AC",
    "Latitude": "4.69513500",
    "Longitude": "96.74939930"
  },
  {
    "Id": 18,
    "AddressCountryId": 86,
    "Name": "Achaea Regional Unit",
    "StateCode": "13",
    "Latitude": "38.11587290",
    "Longitude": "21.95224910"
  },
  {
    "Id": 19,
    "AddressCountryId": 222,
    "Name": "Acklins",
    "StateCode": "AK",
    "Latitude": "22.36577080",
    "Longitude": "-74.05351260"
  },
  {
    "Id": 20,
    "AddressCountryId": 222,
    "Name": "Acklins and Crooked Islands",
    "StateCode": "AC",
    "Latitude": "22.36577080",
    "Longitude": "-74.05351260"
  },
  {
    "Id": 21,
    "AddressCountryId": 192,
    "Name": "Acquaviva",
    "StateCode": "01",
    "Latitude": "41.86715970",
    "Longitude": "14.74694790"
  },
  {
    "Id": 22,
    "AddressCountryId": 31,
    "Name": "Acre",
    "StateCode": "AC",
    "Latitude": "-9.02379600",
    "Longitude": "-70.81199500"
  },
  {
    "Id": 23,
    "AddressCountryId": 177,
    "Name": "Açores",
    "StateCode": "20",
    "Latitude": "37.74124880",
    "Longitude": "-25.67559440"
  },
  {
    "Id": 24,
    "AddressCountryId": 166,
    "Name": "Ad Dakhiliyah Governorate",
    "StateCode": "DA",
    "Latitude": "22.85887580",
    "Longitude": "57.53943560"
  },
  {
    "Id": 25,
    "AddressCountryId": 166,
    "Name": "Ad Dhahirah Governorate",
    "StateCode": "ZA",
    "Latitude": "23.21616740",
    "Longitude": "56.49074440"
  },
  {
    "Id": 26,
    "AddressCountryId": 38,
    "Name": "Adamawa",
    "StateCode": "AD",
    "Latitude": "9.32647510",
    "Longitude": "12.39838530"
  },
  {
    "Id": 27,
    "AddressCountryId": 160,
    "Name": "Adamawa",
    "StateCode": "AD",
    "Latitude": "9.32647510",
    "Longitude": "12.39838530"
  },
  {
    "Id": 28,
    "AddressCountryId": 228,
    "Name": "Adana",
    "StateCode": "01",
    "Latitude": "37.26123150",
    "Longitude": "35.39050460"
  },
  {
    "Id": 29,
    "AddressCountryId": 71,
    "Name": "Addis Ababa",
    "StateCode": "AA",
    "Latitude": "8.98060340",
    "Longitude": "38.75776050"
  },
  {
    "Id": 30,
    "AddressCountryId": 133,
    "Name": "Addu Atoll",
    "StateCode": "01",
    "Latitude": "-0.63009950",
    "Longitude": "73.15856260"
  },
  {
    "Id": 31,
    "AddressCountryId": 228,
    "Name": "Adıyaman",
    "StateCode": "02",
    "Latitude": "37.90782910",
    "Longitude": "38.48499230"
  },
  {
    "Id": 32,
    "AddressCountryId": 82,
    "Name": "Adjara",
    "StateCode": "AJ",
    "Latitude": "41.60056260",
    "Longitude": "42.06883830"
  },
  {
    "Id": 33,
    "AddressCountryId": 232,
    "Name": "Adjumani District",
    "StateCode": "301",
    "Latitude": "3.25485270",
    "Longitude": "31.71954590"
  },
  {
    "Id": 34,
    "AddressCountryId": 4,
    "Name": "Adrar",
    "StateCode": "01",
    "Latitude": "26.41813100",
    "Longitude": "-0.60147170"
  },
  {
    "Id": 35,
    "AddressCountryId": 139,
    "Name": "Adrar Region",
    "StateCode": "07",
    "Latitude": "19.86521760",
    "Longitude": "-12.80547530"
  },
  {
    "Id": 36,
    "AddressCountryId": 129,
    "Name": "Aerodrom Municipality",
    "StateCode": "01",
    "Latitude": "41.94643630",
    "Longitude": "21.49317130"
  },
  {
    "Id": 37,
    "AddressCountryId": 86,
    "Name": "Aetolia-Acarnania Regional Unit",
    "StateCode": "01",
    "Latitude": "38.70843860",
    "Longitude": "21.37989280"
  },
  {
    "Id": 38,
    "AddressCountryId": 71,
    "Name": "Afar Region",
    "StateCode": "AF",
    "Latitude": "11.75593880",
    "Longitude": "40.95868800"
  },
  {
    "Id": 39,
    "AddressCountryId": 228,
    "Name": "Afyonkarahisar",
    "StateCode": "03",
    "Latitude": "38.73910990",
    "Longitude": "30.71200230"
  },
  {
    "Id": 40,
    "AddressCountryId": 159,
    "Name": "Agadez Region",
    "StateCode": "1",
    "Latitude": "20.66707520",
    "Longitude": "12.07182810"
  },
  {
    "Id": 41,
    "AddressCountryId": 149,
    "Name": "Agadir-Ida-Ou-Tanane",
    "StateCode": "AGD",
    "Latitude": "30.64620910",
    "Longitude": "-9.83390610"
  },
  {
    "Id": 42,
    "AddressCountryId": 232,
    "Name": "Agago District",
    "StateCode": "322",
    "Latitude": "2.92508200",
    "Longitude": "33.34861470"
  },
  {
    "Id": 43,
    "AddressCountryId": 140,
    "Name": "Agaléga",
    "StateCode": "AG",
    "Latitude": "-10.40000000",
    "Longitude": "56.61666670"
  },
  {
    "Id": 44,
    "AddressCountryId": 16,
    "Name": "Agdam District",
    "StateCode": "AGM",
    "Latitude": "39.99318530",
    "Longitude": "46.99495620"
  },
  {
    "Id": 45,
    "AddressCountryId": 16,
    "Name": "Agdash District",
    "StateCode": "AGS",
    "Latitude": "40.63354270",
    "Longitude": "47.46743100"
  },
  {
    "Id": 46,
    "AddressCountryId": 16,
    "Name": "Aghjabadi District",
    "StateCode": "AGC",
    "Latitude": "28.78918410",
    "Longitude": "77.51607880"
  },
  {
    "Id": 47,
    "AddressCountryId": 120,
    "Name": "Aglona Municipality",
    "StateCode": "001",
    "Latitude": "56.10890060",
    "Longitude": "27.12862270"
  },
  {
    "Id": 48,
    "AddressCountryId": 53,
    "Name": "Agnéby",
    "StateCode": "16",
    "Latitude": "5.32245030",
    "Longitude": "-4.34495290"
  },
  {
    "Id": 49,
    "AddressCountryId": 16,
    "Name": "Agstafa District",
    "StateCode": "AGA",
    "Latitude": "41.26559330",
    "Longitude": "45.51342910"
  },
  {
    "Id": 50,
    "AddressCountryId": 16,
    "Name": "Agsu District",
    "StateCode": "AGU",
    "Latitude": "40.52833390",
    "Longitude": "48.36508350"
  },
  {
    "Id": 51,
    "AddressCountryId": 142,
    "Name": "Aguascalientes",
    "StateCode": "AGU",
    "Latitude": "21.88525620",
    "Longitude": "-102.29156770"
  },
  {
    "Id": 52,
    "AddressCountryId": 174,
    "Name": "Agusan del Norte",
    "StateCode": "AGN",
    "Latitude": "8.94562590",
    "Longitude": "125.53192340"
  },
  {
    "Id": 53,
    "AddressCountryId": 174,
    "Name": "Agusan del Sur",
    "StateCode": "AGS",
    "Latitude": "8.04638880",
    "Longitude": "126.06153840"
  },
  {
    "Id": 54,
    "AddressCountryId": 228,
    "Name": "Ağrı",
    "StateCode": "04",
    "Latitude": "39.62692180",
    "Longitude": "43.02159650"
  },
  {
    "Id": 55,
    "AddressCountryId": 84,
    "Name": "Ahafo",
    "StateCode": "AF",
    "Latitude": "7.58213720",
    "Longitude": "-2.54974630"
  },
  {
    "Id": 56,
    "AddressCountryId": 229,
    "Name": "Ahal Region",
    "StateCode": "A",
    "Latitude": "38.63993980",
    "Longitude": "59.47209040"
  },
  {
    "Id": 57,
    "AddressCountryId": 67,
    "Name": "Ahuachapán Department",
    "StateCode": "AH",
    "Latitude": "13.82161480",
    "Longitude": "-89.92532330"
  },
  {
    "Id": 58,
    "AddressCountryId": 110,
    "Name": "Aichi Prefecture",
    "StateCode": "23",
    "Latitude": "35.01825050",
    "Longitude": "137.29238930"
  },
  {
    "Id": 59,
    "AddressCountryId": 191,
    "Name": "Aiga-i-le-Tai",
    "StateCode": "AL",
    "Latitude": "-13.85137910",
    "Longitude": "-172.03254010"
  },
  {
    "Id": 60,
    "AddressCountryId": 64,
    "Name": "Aileu municipality",
    "StateCode": "AL",
    "Latitude": "-8.70439940",
    "Longitude": "125.60954740"
  },
  {
    "Id": 61,
    "AddressCountryId": 168,
    "Name": "Aimeliik",
    "StateCode": "002",
    "Latitude": "7.44558590",
    "Longitude": "134.50308780"
  },
  {
    "Id": 62,
    "AddressCountryId": 76,
    "Name": "Ain",
    "StateCode": "01",
    "Latitude": "46.06508600",
    "Longitude": "4.88861500"
  },
  {
    "Id": 63,
    "AddressCountryId": 4,
    "Name": "Aïn Defla",
    "StateCode": "44",
    "Latitude": "36.25094290",
    "Longitude": "1.93938150"
  },
  {
    "Id": 64,
    "AddressCountryId": 4,
    "Name": "Aïn Témouchent",
    "StateCode": "46",
    "Latitude": "35.29926980",
    "Longitude": "-1.13927920"
  },
  {
    "Id": 65,
    "AddressCountryId": 64,
    "Name": "Ainaro Municipality",
    "StateCode": "AN",
    "Latitude": "-9.01131710",
    "Longitude": "125.52200120"
  },
  {
    "Id": 66,
    "AddressCountryId": 168,
    "Name": "Airai",
    "StateCode": "004",
    "Latitude": "7.39661180",
    "Longitude": "134.56902250"
  },
  {
    "Id": 67,
    "AddressCountryId": 44,
    "Name": "Aisén del General Carlos Ibañez del Campo",
    "StateCode": "AI",
    "Latitude": "-46.37834500",
    "Longitude": "-72.30076230"
  },
  {
    "Id": 68,
    "AddressCountryId": 76,
    "Name": "Aisne",
    "StateCode": "02",
    "Latitude": "49.45289210",
    "Longitude": "3.04651110"
  },
  {
    "Id": 69,
    "AddressCountryId": 153,
    "Name": "Aiwo District",
    "StateCode": "01",
    "Latitude": "-0.53400120",
    "Longitude": "166.91388730"
  },
  {
    "Id": 70,
    "AddressCountryId": 120,
    "Name": "Aizkraukle Municipality",
    "StateCode": "002",
    "Latitude": "56.64610800",
    "Longitude": "25.23708540"
  },
  {
    "Id": 71,
    "AddressCountryId": 120,
    "Name": "Aizpute Municipality",
    "StateCode": "003",
    "Latitude": "56.71825960",
    "Longitude": "21.60727590"
  },
  {
    "Id": 72,
    "AddressCountryId": 202,
    "Name": "Ajdovščina Municipality",
    "StateCode": "001",
    "Latitude": "45.88707760",
    "Longitude": "13.90428180"
  },
  {
    "Id": 73,
    "AddressCountryId": 112,
    "Name": "Ajloun Governorate",
    "StateCode": "AJ",
    "Latitude": "32.33255840",
    "Longitude": "35.75168440"
  },
  {
    "Id": 74,
    "AddressCountryId": 234,
    "Name": "Ajman Emirate",
    "StateCode": "AJ",
    "Latitude": "25.40521650",
    "Longitude": "55.51364330"
  },
  {
    "Id": 75,
    "AddressCountryId": 165,
    "Name": "Akershus",
    "StateCode": "02",
    "Latitude": "28.37042030",
    "Longitude": "-81.54680580"
  },
  {
    "Id": 76,
    "AddressCountryId": 110,
    "Name": "Akita Prefecture",
    "StateCode": "05",
    "Latitude": "40.13762930",
    "Longitude": "140.33434100"
  },
  {
    "Id": 77,
    "AddressCountryId": 121,
    "Name": "Akkar Governorate",
    "StateCode": "AK",
    "Latitude": "34.53287630",
    "Longitude": "36.13281320"
  },
  {
    "Id": 78,
    "AddressCountryId": 174,
    "Name": "Aklan",
    "StateCode": "AKL",
    "Latitude": "11.81661090",
    "Longitude": "122.09415410"
  },
  {
    "Id": 79,
    "AddressCountryId": 126,
    "Name": "Akmenė District Municipality",
    "StateCode": "01",
    "Latitude": "56.24550290",
    "Longitude": "22.74711690"
  },
  {
    "Id": 80,
    "AddressCountryId": 113,
    "Name": "Akmola Region",
    "StateCode": "AKM",
    "Latitude": "51.91653200",
    "Longitude": "69.41104940"
  },
  {
    "Id": 81,
    "AddressCountryId": 120,
    "Name": "Aknīste Municipality",
    "StateCode": "004",
    "Latitude": "56.16130370",
    "Longitude": "25.74848270"
  },
  {
    "Id": 82,
    "AddressCountryId": 228,
    "Name": "Aksaray",
    "StateCode": "68",
    "Latitude": "38.33520430",
    "Longitude": "33.97500180"
  },
  {
    "Id": 83,
    "AddressCountryId": 113,
    "Name": "Aktobe Region",
    "StateCode": "AKT",
    "Latitude": "48.77970780",
    "Longitude": "57.99743780"
  },
  {
    "Id": 84,
    "AddressCountryId": 160,
    "Name": "Akwa Ibom",
    "StateCode": "AK",
    "Latitude": "4.90573710",
    "Longitude": "7.85366750"
  },
  {
    "Id": 85,
    "AddressCountryId": 117,
    "Name": "Al Ahmadi Governorate",
    "StateCode": "AH",
    "Latitude": "28.57451250",
    "Longitude": "48.10247430"
  },
  {
    "Id": 86,
    "AddressCountryId": 105,
    "Name": "Al Anbar Governorate",
    "StateCode": "AN",
    "Latitude": "32.55976140",
    "Longitude": "41.91964710"
  },
  {
    "Id": 87,
    "AddressCountryId": 194,
    "Name": "Al Bahah",
    "StateCode": "11",
    "Latitude": "20.27227390",
    "Longitude": "41.44125100"
  },
  {
    "Id": 88,
    "AddressCountryId": 166,
    "Name": "Al Batinah North Governorate",
    "StateCode": "BS",
    "Latitude": "24.34198460",
    "Longitude": "56.72989040"
  },
  {
    "Id": 89,
    "AddressCountryId": 166,
    "Name": "Al Batinah Region",
    "StateCode": "BA",
    "Latitude": "24.34198460",
    "Longitude": "56.72989040"
  },
  {
    "Id": 90,
    "AddressCountryId": 166,
    "Name": "Al Batinah South Governorate",
    "StateCode": "BJ",
    "Latitude": "23.43149030",
    "Longitude": "57.42397960"
  },
  {
    "Id": 91,
    "AddressCountryId": 248,
    "Name": "Al Bayda' Governorate",
    "StateCode": "BA",
    "Latitude": "14.35886620",
    "Longitude": "45.44980650"
  },
  {
    "Id": 92,
    "AddressCountryId": 166,
    "Name": "Al Buraimi Governorate",
    "StateCode": "BU",
    "Latitude": "24.16714130",
    "Longitude": "56.11422530"
  },
  {
    "Id": 93,
    "AddressCountryId": 179,
    "Name": "Al Daayen",
    "StateCode": "ZA",
    "Latitude": "25.57845590",
    "Longitude": "51.48213870"
  },
  {
    "Id": 94,
    "AddressCountryId": 117,
    "Name": "Al Farwaniyah Governorate",
    "StateCode": "FA",
    "Latitude": "29.27335700",
    "Longitude": "47.94001540"
  },
  {
    "Id": 95,
    "AddressCountryId": 149,
    "Name": "Al Haouz",
    "StateCode": "HAO",
    "Latitude": "31.29567290",
    "Longitude": "-7.87216000"
  },
  {
    "Id": 96,
    "AddressCountryId": 149,
    "Name": "Al Hoceïma",
    "StateCode": "HOC",
    "Latitude": "35.24455890",
    "Longitude": "-3.93174680"
  },
  {
    "Id": 97,
    "AddressCountryId": 248,
    "Name": "Al Hudaydah Governorate",
    "StateCode": "HU",
    "Latitude": "15.30530720",
    "Longitude": "43.01948970"
  },
  {
    "Id": 98,
    "AddressCountryId": 117,
    "Name": "Al Jahra Governorate",
    "StateCode": "JA",
    "Latitude": "29.99318310",
    "Longitude": "47.76347310"
  },
  {
    "Id": 99,
    "AddressCountryId": 194,
    "Name": "Al Jawf",
    "StateCode": "12",
    "Latitude": "29.88735600",
    "Longitude": "39.32062410"
  },
  {
    "Id": 100,
    "AddressCountryId": 248,
    "Name": "Al Jawf Governorate",
    "StateCode": "JA",
    "Latitude": "16.79018190",
    "Longitude": "45.29938620"
  },
  {
    "Id": 101,
    "AddressCountryId": 211,
    "Name": "Al Jazirah",
    "StateCode": "GZ",
    "Latitude": "14.88596110",
    "Longitude": "33.43835300"
  },
  {
    "Id": 102,
    "AddressCountryId": 179,
    "Name": "Al Khor",
    "StateCode": "KH",
    "Latitude": "25.68040780",
    "Longitude": "51.49685020"
  },
  {
    "Id": 103,
    "AddressCountryId": 194,
    "Name": "Al Madinah",
    "StateCode": "03",
    "Latitude": "24.84039770",
    "Longitude": "39.32062410"
  },
  {
    "Id": 104,
    "AddressCountryId": 248,
    "Name": "Al Mahrah Governorate",
    "StateCode": "MR",
    "Latitude": "16.52384230",
    "Longitude": "51.68342750"
  },
  {
    "Id": 105,
    "AddressCountryId": 248,
    "Name": "Al Mahwit Governorate",
    "StateCode": "MW",
    "Latitude": "15.39632290",
    "Longitude": "43.56069460"
  },
  {
    "Id": 106,
    "AddressCountryId": 105,
    "Name": "Al Muthanna Governorate",
    "StateCode": "MU",
    "Latitude": "29.91331710",
    "Longitude": "45.29938620"
  },
  {
    "Id": 107,
    "AddressCountryId": 211,
    "Name": "Al Qadarif",
    "StateCode": "GD",
    "Latitude": "14.02430700",
    "Longitude": "35.36856790"
  },
  {
    "Id": 108,
    "AddressCountryId": 179,
    "Name": "Al Rayyan Municipality",
    "StateCode": "RA",
    "Latitude": "25.25225510",
    "Longitude": "51.43887130"
  },
  {
    "Id": 109,
    "AddressCountryId": 124,
    "Name": "Al Wahat District",
    "StateCode": "WA",
    "Latitude": "29.04668080",
    "Longitude": "21.85685860"
  },
  {
    "Id": 110,
    "AddressCountryId": 179,
    "Name": "Al Wakrah",
    "StateCode": "WA",
    "Latitude": "25.16593140",
    "Longitude": "51.59755240"
  },
  {
    "Id": 111,
    "AddressCountryId": 166,
    "Name": "Al Wusta Governorate",
    "StateCode": "WU",
    "Latitude": "19.95710780",
    "Longitude": "56.27568460"
  },
  {
    "Id": 112,
    "AddressCountryId": 217,
    "Name": "Al-Hasakah Governorate",
    "StateCode": "HA",
    "Latitude": "36.40551500",
    "Longitude": "40.79691490"
  },
  {
    "Id": 113,
    "AddressCountryId": 105,
    "Name": "Al-Qādisiyyah Governorate",
    "StateCode": "QA",
    "Latitude": "32.04369100",
    "Longitude": "45.14945050"
  },
  {
    "Id": 114,
    "AddressCountryId": 194,
    "Name": "Al-Qassim",
    "StateCode": "05",
    "Latitude": "26.20782600",
    "Longitude": "43.48373800"
  },
  {
    "Id": 115,
    "AddressCountryId": 217,
    "Name": "Al-Raqqah Governorate",
    "StateCode": "RA",
    "Latitude": "35.95941060",
    "Longitude": "38.99810520"
  },
  {
    "Id": 116,
    "AddressCountryId": 179,
    "Name": "Al-Shahaniya",
    "StateCode": "SH",
    "Latitude": "25.41063860",
    "Longitude": "51.18460250"
  },
  {
    "Id": 117,
    "AddressCountryId": 236,
    "Name": "Alabama",
    "StateCode": "AL",
    "Latitude": "32.31823140",
    "Longitude": "-86.90229800"
  },
  {
    "Id": 118,
    "AddressCountryId": 31,
    "Name": "Alagoas",
    "StateCode": "AL",
    "Latitude": "-9.57130580",
    "Longitude": "-36.78195050"
  },
  {
    "Id": 119,
    "AddressCountryId": 52,
    "Name": "Alajuela Province",
    "StateCode": "A",
    "Latitude": "10.39158300",
    "Longitude": "-84.43827210"
  },
  {
    "Id": 120,
    "AddressCountryId": 75,
    "Name": "Åland Islands",
    "StateCode": "01",
    "Latitude": "60.17852470",
    "Longitude": "19.91561050"
  },
  {
    "Id": 121,
    "AddressCountryId": 236,
    "Name": "Alaska",
    "StateCode": "AK",
    "Latitude": "64.20084130",
    "Longitude": "-149.49367330"
  },
  {
    "Id": 122,
    "AddressCountryId": 181,
    "Name": "Alba",
    "StateCode": "AB",
    "Latitude": "44.70091530",
    "Longitude": "8.03569110"
  },
  {
    "Id": 123,
    "AddressCountryId": 174,
    "Name": "Albay",
    "StateCode": "ALB",
    "Latitude": "13.17748270",
    "Longitude": "123.52800720"
  },
  {
    "Id": 124,
    "AddressCountryId": 39,
    "Name": "Alberta",
    "StateCode": "AB",
    "Latitude": "53.93327060",
    "Longitude": "-116.57650350"
  },
  {
    "Id": 125,
    "AddressCountryId": 104,
    "Name": "Alborz",
    "StateCode": "30",
    "Latitude": "35.99604670",
    "Longitude": "50.92892460"
  },
  {
    "Id": 126,
    "AddressCountryId": 232,
    "Name": "Alebtong District",
    "StateCode": "323",
    "Latitude": "2.25457730",
    "Longitude": "33.34861470"
  },
  {
    "Id": 127,
    "AddressCountryId": 217,
    "Name": "Aleppo Governorate",
    "StateCode": "HL",
    "Latitude": "36.22623930",
    "Longitude": "37.46813960"
  },
  {
    "Id": 128,
    "AddressCountryId": 66,
    "Name": "Alexandria",
    "StateCode": "ALX",
    "Latitude": "30.87605680",
    "Longitude": "29.74260400"
  },
  {
    "Id": 129,
    "AddressCountryId": 4,
    "Name": "Algiers",
    "StateCode": "16",
    "Latitude": "36.69972940",
    "Longitude": "3.05761990"
  },
  {
    "Id": 130,
    "AddressCountryId": 61,
    "Name": "Ali Sabieh Region",
    "StateCode": "AS",
    "Latitude": "11.19289730",
    "Longitude": "42.94169800"
  },
  {
    "Id": 131,
    "AddressCountryId": 23,
    "Name": "Alibori Department",
    "StateCode": "AL",
    "Latitude": "10.96810930",
    "Longitude": "2.77798130"
  },
  {
    "Id": 132,
    "AddressCountryId": 133,
    "Name": "Alif Alif Atoll",
    "StateCode": "02",
    "Latitude": "4.08500000",
    "Longitude": "72.85154790"
  },
  {
    "Id": 133,
    "AddressCountryId": 133,
    "Name": "Alif Dhaal Atoll",
    "StateCode": "00",
    "Latitude": "3.65433020",
    "Longitude": "72.80427970"
  },
  {
    "Id": 134,
    "AddressCountryId": 76,
    "Name": "Allier",
    "StateCode": "03",
    "Latitude": "46.36708630",
    "Longitude": "2.58082770"
  },
  {
    "Id": 135,
    "AddressCountryId": 113,
    "Name": "Almaty",
    "StateCode": "ALA",
    "Latitude": "43.22201460",
    "Longitude": "76.85124850"
  },
  {
    "Id": 136,
    "AddressCountryId": 113,
    "Name": "Almaty Region",
    "StateCode": "ALM",
    "Latitude": "45.01192270",
    "Longitude": "78.42293920"
  },
  {
    "Id": 137,
    "AddressCountryId": 120,
    "Name": "Aloja Municipality",
    "StateCode": "005",
    "Latitude": "57.76713600",
    "Longitude": "24.87708390"
  },
  {
    "Id": 138,
    "AddressCountryId": 76,
    "Name": "Alpes-de-Haute-Provence",
    "StateCode": "04",
    "Latitude": "44.16377520",
    "Longitude": "5.67247800"
  },
  {
    "Id": 139,
    "AddressCountryId": 76,
    "Name": "Alpes-Maritimes",
    "StateCode": "06",
    "Latitude": "43.92041700",
    "Longitude": "6.61678220"
  },
  {
    "Id": 140,
    "AddressCountryId": 76,
    "Name": "Alsace",
    "StateCode": "6AE",
    "Latitude": "48.31817950",
    "Longitude": "7.44162410"
  },
  {
    "Id": 141,
    "AddressCountryId": 120,
    "Name": "Alsunga Municipality",
    "StateCode": "006",
    "Latitude": "56.98285310",
    "Longitude": "21.55559190"
  },
  {
    "Id": 142,
    "AddressCountryId": 91,
    "Name": "Alta Verapaz Department",
    "StateCode": "AV",
    "Latitude": "15.59428830",
    "Longitude": "-90.14949880"
  },
  {
    "Id": 143,
    "AddressCountryId": 182,
    "Name": "Altai Krai",
    "StateCode": "ALT",
    "Latitude": "51.79362980",
    "Longitude": "82.67585960"
  },
  {
    "Id": 144,
    "AddressCountryId": 182,
    "Name": "Altai Republic",
    "StateCode": "AL",
    "Latitude": "50.61819240",
    "Longitude": "86.21993080"
  },
  {
    "Id": 145,
    "AddressCountryId": 172,
    "Name": "Alto Paraguay Department",
    "StateCode": "16",
    "Latitude": "-20.08525080",
    "Longitude": "-59.47209040"
  },
  {
    "Id": 146,
    "AddressCountryId": 172,
    "Name": "Alto Paraná Department",
    "StateCode": "10",
    "Latitude": "-25.60755460",
    "Longitude": "-54.96118360"
  },
  {
    "Id": 147,
    "AddressCountryId": 120,
    "Name": "Alūksne Municipality",
    "StateCode": "007",
    "Latitude": "57.42544850",
    "Longitude": "27.04249680"
  },
  {
    "Id": 148,
    "AddressCountryId": 126,
    "Name": "Alytus City Municipality",
    "StateCode": "02",
    "Latitude": "54.39629380",
    "Longitude": "24.04587610"
  },
  {
    "Id": 149,
    "AddressCountryId": 126,
    "Name": "Alytus County",
    "StateCode": "AL",
    "Latitude": "54.20002140",
    "Longitude": "24.15126340"
  },
  {
    "Id": 150,
    "AddressCountryId": 126,
    "Name": "Alytus District Municipality",
    "StateCode": "03",
    "Latitude": "54.32974960",
    "Longitude": "24.19609310"
  },
  {
    "Id": 151,
    "AddressCountryId": 172,
    "Name": "Amambay Department",
    "StateCode": "13",
    "Latitude": "-22.55902720",
    "Longitude": "-56.02499820"
  },
  {
    "Id": 152,
    "AddressCountryId": 31,
    "Name": "Amapá",
    "StateCode": "AP",
    "Latitude": "0.90199250",
    "Longitude": "-52.00295650"
  },
  {
    "Id": 153,
    "AddressCountryId": 228,
    "Name": "Amasya",
    "StateCode": "05",
    "Latitude": "40.65166080",
    "Longitude": "35.90379660"
  },
  {
    "Id": 154,
    "AddressCountryId": 120,
    "Name": "Amata Municipality",
    "StateCode": "008",
    "Latitude": "56.99387260",
    "Longitude": "25.26276750"
  },
  {
    "Id": 155,
    "AddressCountryId": 31,
    "Name": "Amazonas",
    "StateCode": "AM",
    "Latitude": "-3.07000000",
    "Longitude": "-61.66000000"
  },
  {
    "Id": 156,
    "AddressCountryId": 48,
    "Name": "Amazonas",
    "StateCode": "AMA",
    "Latitude": "-1.44291230",
    "Longitude": "-71.57239530"
  },
  {
    "Id": 157,
    "AddressCountryId": 173,
    "Name": "Amazonas",
    "StateCode": "AMA",
    "Latitude": null,
    "Longitude": null
  },
  {
    "Id": 158,
    "AddressCountryId": 242,
    "Name": "Amazonas",
    "StateCode": "Z",
    "Latitude": "-3.41684270",
    "Longitude": "-65.85606460"
  },
  {
    "Id": 159,
    "AddressCountryId": 236,
    "Name": "American Samoa",
    "StateCode": "AS",
    "Latitude": "-14.27097200",
    "Longitude": "-170.13221700"
  },
  {
    "Id": 160,
    "AddressCountryId": 71,
    "Name": "Amhara Region",
    "StateCode": "AM",
    "Latitude": "11.34942470",
    "Longitude": "37.97845850"
  },
  {
    "Id": 161,
    "AddressCountryId": 112,
    "Name": "Amman Governorate",
    "StateCode": "AM",
    "Latitude": "31.94536330",
    "Longitude": "35.92838950"
  },
  {
    "Id": 162,
    "AddressCountryId": 221,
    "Name": "Amnat Charoen",
    "StateCode": "37",
    "Latitude": "15.86567830",
    "Longitude": "104.62577740"
  },
  {
    "Id": 163,
    "AddressCountryId": 232,
    "Name": "Amolatar District",
    "StateCode": "315",
    "Latitude": "1.60544020",
    "Longitude": "32.80844960"
  },
  {
    "Id": 164,
    "AddressCountryId": 210,
    "Name": "Ampara District",
    "StateCode": "52",
    "Latitude": "7.29116850",
    "Longitude": "81.67237610"
  },
  {
    "Id": 165,
    "AddressCountryId": 232,
    "Name": "Amudat District",
    "StateCode": "324",
    "Latitude": "1.79162240",
    "Longitude": "34.90655100"
  },
  {
    "Id": 166,
    "AddressCountryId": 182,
    "Name": "Amur Oblast",
    "StateCode": "AMU",
    "Latitude": "54.60350650",
    "Longitude": "127.48017210"
  },
  {
    "Id": 167,
    "AddressCountryId": 232,
    "Name": "Amuria District",
    "StateCode": "216",
    "Latitude": "2.03017000",
    "Longitude": "33.64275330"
  },
  {
    "Id": 168,
    "AddressCountryId": 232,
    "Name": "Amuru District",
    "StateCode": "316",
    "Latitude": "2.96678780",
    "Longitude": "32.08374450"
  },
  {
    "Id": 169,
    "AddressCountryId": 243,
    "Name": "An Giang",
    "StateCode": "44",
    "Latitude": "10.52158360",
    "Longitude": "105.12589550"
  },
  {
    "Id": 170,
    "AddressCountryId": 153,
    "Name": "Anabar District",
    "StateCode": "02",
    "Latitude": "-0.51335170",
    "Longitude": "166.94846240"
  },
  {
    "Id": 171,
    "AddressCountryId": 160,
    "Name": "Anambra",
    "StateCode": "AN",
    "Latitude": "6.22089970",
    "Longitude": "6.93695590"
  },
  {
    "Id": 172,
    "AddressCountryId": 173,
    "Name": "Áncash",
    "StateCode": "ANC",
    "Latitude": "-9.32504970",
    "Longitude": "-77.56194190"
  },
  {
    "Id": 173,
    "AddressCountryId": 209,
    "Name": "Andalusia",
    "StateCode": "AN",
    "Latitude": "37.54427060",
    "Longitude": "-4.72775280"
  },
  {
    "Id": 174,
    "AddressCountryId": 102,
    "Name": "Andaman and Nicobar Islands",
    "StateCode": "AN",
    "Latitude": "11.74008670",
    "Longitude": "92.65864010"
  },
  {
    "Id": 175,
    "AddressCountryId": 102,
    "Name": "Andhra Pradesh",
    "StateCode": "AP",
    "Latitude": "15.91289980",
    "Longitude": "79.73998750"
  },
  {
    "Id": 176,
    "AddressCountryId": 239,
    "Name": "Andijan Region",
    "StateCode": "AN",
    "Latitude": "40.76859410",
    "Longitude": "72.23637900"
  },
  {
    "Id": 177,
    "AddressCountryId": 6,
    "Name": "Andorra la Vella",
    "StateCode": "07",
    "Latitude": "42.50631740",
    "Longitude": "1.52183550"
  },
  {
    "Id": 178,
    "AddressCountryId": 147,
    "Name": "Andrijevica Municipality",
    "StateCode": "01",
    "Latitude": "42.73624770",
    "Longitude": "19.78595560"
  },
  {
    "Id": 179,
    "AddressCountryId": 144,
    "Name": "Anenii Noi District",
    "StateCode": "AN",
    "Latitude": "46.87956630",
    "Longitude": "29.23121750"
  },
  {
    "Id": 180,
    "AddressCountryId": 153,
    "Name": "Anetan District",
    "StateCode": "03",
    "Latitude": "-0.50643430",
    "Longitude": "166.94270060"
  },
  {
    "Id": 181,
    "AddressCountryId": 221,
    "Name": "Ang Thong",
    "StateCode": "15",
    "Latitude": "14.58960540",
    "Longitude": "100.45505200"
  },
  {
    "Id": 182,
    "AddressCountryId": 168,
    "Name": "Angaur",
    "StateCode": "010",
    "Latitude": "6.90922300",
    "Longitude": "134.13879340"
  },
  {
    "Id": 183,
    "AddressCountryId": 235,
    "Name": "Angus",
    "StateCode": "ANS",
    "Latitude": "37.27578860",
    "Longitude": "-95.65010330"
  },
  {
    "Id": 184,
    "AddressCountryId": 45,
    "Name": "Anhui",
    "StateCode": "AH",
    "Latitude": "30.60067730",
    "Longitude": "117.92490020"
  },
  {
    "Id": 185,
    "AddressCountryId": 153,
    "Name": "Anibare District",
    "StateCode": "04",
    "Latitude": "-0.52947580",
    "Longitude": "166.95134320"
  },
  {
    "Id": 186,
    "AddressCountryId": 49,
    "Name": "Anjouan",
    "StateCode": "A",
    "Latitude": "-12.21381450",
    "Longitude": "44.43706060"
  },
  {
    "Id": 187,
    "AddressCountryId": 228,
    "Name": "Ankara",
    "StateCode": "06",
    "Latitude": "39.78052450",
    "Longitude": "32.71813750"
  },
  {
    "Id": 188,
    "AddressCountryId": 202,
    "Name": "Ankaran Municipality",
    "StateCode": "213",
    "Latitude": "45.57845100",
    "Longitude": "13.73691740"
  },
  {
    "Id": 189,
    "AddressCountryId": 4,
    "Name": "Annaba",
    "StateCode": "23",
    "Latitude": "36.80205080",
    "Longitude": "7.52472430"
  },
  {
    "Id": 190,
    "AddressCountryId": 68,
    "Name": "Annobón Province",
    "StateCode": "AN",
    "Latitude": "-1.42687820",
    "Longitude": "5.63528010"
  },
  {
    "Id": 191,
    "AddressCountryId": 197,
    "Name": "Anse Boileau",
    "StateCode": "02",
    "Latitude": "-4.70472680",
    "Longitude": "55.48593630"
  },
  {
    "Id": 192,
    "AddressCountryId": 186,
    "Name": "Anse la Raye Quarter",
    "StateCode": "01",
    "Latitude": "13.94594240",
    "Longitude": "-61.03694680"
  },
  {
    "Id": 193,
    "AddressCountryId": 197,
    "Name": "Anse Royale",
    "StateCode": "05",
    "Latitude": "-4.74079880",
    "Longitude": "55.50810120"
  },
  {
    "Id": 194,
    "AddressCountryId": 197,
    "Name": "Anse-aux-Pins",
    "StateCode": "01",
    "Latitude": "-4.69004430",
    "Longitude": "55.51502890"
  },
  {
    "Id": 195,
    "AddressCountryId": 69,
    "Name": "Anseba Region",
    "StateCode": "AN",
    "Latitude": "16.47455310",
    "Longitude": "37.80876930"
  },
  {
    "Id": 196,
    "AddressCountryId": 228,
    "Name": "Antalya",
    "StateCode": "07",
    "Latitude": "37.09516720",
    "Longitude": "31.07937050"
  },
  {
    "Id": 197,
    "AddressCountryId": 130,
    "Name": "Antananarivo Province",
    "StateCode": "T",
    "Latitude": "-18.70514740",
    "Longitude": "46.82528380"
  },
  {
    "Id": 198,
    "AddressCountryId": 48,
    "Name": "Antioquia",
    "StateCode": "ANT",
    "Latitude": "7.19860640",
    "Longitude": "-75.34121790"
  },
  {
    "Id": 199,
    "AddressCountryId": 174,
    "Name": "Antique",
    "StateCode": "ANT",
    "Latitude": "37.03586950",
    "Longitude": "-95.63616940"
  },
  {
    "Id": 200,
    "AddressCountryId": 44,
    "Name": "Antofagasta",
    "StateCode": "AN",
    "Latitude": "-23.83691040",
    "Longitude": "-69.28775350"
  },
  {
    "Id": 201,
    "AddressCountryId": 235,
    "Name": "Antrim",
    "StateCode": "ANT",
    "Latitude": "54.71953380",
    "Longitude": "-6.20724980"
  },
  {
    "Id": 202,
    "AddressCountryId": 235,
    "Name": "Antrim and Newtownabbey",
    "StateCode": "ANN",
    "Latitude": "54.69568870",
    "Longitude": "-5.94810690"
  },
  {
    "Id": 203,
    "AddressCountryId": 130,
    "Name": "Antsiranana Province",
    "StateCode": "D",
    "Latitude": "-13.77153900",
    "Longitude": "49.52799960"
  },
  {
    "Id": 204,
    "AddressCountryId": 21,
    "Name": "Antwerp",
    "StateCode": "VAN",
    "Latitude": "51.21944750",
    "Longitude": "4.40246430"
  },
  {
    "Id": 205,
    "AddressCountryId": 210,
    "Name": "Anuradhapura District",
    "StateCode": "71",
    "Latitude": "8.33183050",
    "Longitude": "80.40290170"
  },
  {
    "Id": 206,
    "AddressCountryId": 242,
    "Name": "Anzoátegui",
    "StateCode": "B",
    "Latitude": "8.59130730",
    "Longitude": "-63.95861110"
  },
  {
    "Id": 207,
    "AddressCountryId": 110,
    "Name": "Aomori Prefecture",
    "StateCode": "02",
    "Latitude": "40.76570770",
    "Longitude": "140.91758790"
  },
  {
    "Id": 208,
    "AddressCountryId": 108,
    "Name": "Aosta Valley",
    "StateCode": "23",
    "Latitude": "45.73888780",
    "Longitude": "7.42618660"
  },
  {
    "Id": 209,
    "AddressCountryId": 149,
    "Name": "Aousserd (EH)",
    "StateCode": "AOU",
    "Latitude": "22.55215380",
    "Longitude": "-14.32973530"
  },
  {
    "Id": 210,
    "AddressCountryId": 232,
    "Name": "Apac District",
    "StateCode": "302",
    "Latitude": "1.87302630",
    "Longitude": "32.62774550"
  },
  {
    "Id": 211,
    "AddressCountryId": 174,
    "Name": "Apayao",
    "StateCode": "APA",
    "Latitude": "18.01203040",
    "Longitude": "121.17103890"
  },
  {
    "Id": 212,
    "AddressCountryId": 120,
    "Name": "Ape Municipality",
    "StateCode": "009",
    "Latitude": "57.53926970",
    "Longitude": "26.69416490"
  },
  {
    "Id": 213,
    "AddressCountryId": 216,
    "Name": "Appenzell Ausserrhoden",
    "StateCode": "AR",
    "Latitude": "47.36648100",
    "Longitude": "9.30009160"
  },
  {
    "Id": 214,
    "AddressCountryId": 216,
    "Name": "Appenzell Innerrhoden",
    "StateCode": "AI",
    "Latitude": "47.31619250",
    "Longitude": "9.43165730"
  },
  {
    "Id": 215,
    "AddressCountryId": 108,
    "Name": "Apulia",
    "StateCode": "75",
    "Latitude": "40.79283930",
    "Longitude": "17.10119310"
  },
  {
    "Id": 216,
    "AddressCountryId": 242,
    "Name": "Apure",
    "StateCode": "C",
    "Latitude": "6.92694830",
    "Longitude": "-68.52471490"
  },
  {
    "Id": 217,
    "AddressCountryId": 173,
    "Name": "Apurímac",
    "StateCode": "APU",
    "Latitude": "-14.05045330",
    "Longitude": "-73.08774900"
  },
  {
    "Id": 218,
    "AddressCountryId": 112,
    "Name": "Aqaba Governorate",
    "StateCode": "AQ",
    "Latitude": "29.53208600",
    "Longitude": "35.00628210"
  },
  {
    "Id": 219,
    "AddressCountryId": 129,
    "Name": "Aračinovo Municipality",
    "StateCode": "02",
    "Latitude": "42.02473810",
    "Longitude": "21.57664070"
  },
  {
    "Id": 220,
    "AddressCountryId": 181,
    "Name": "Arad County",
    "StateCode": "AR",
    "Latitude": "46.22836510",
    "Longitude": "21.65978190"
  },
  {
    "Id": 221,
    "AddressCountryId": 12,
    "Name": "Aragatsotn Region",
    "StateCode": "AG",
    "Latitude": "40.33473010",
    "Longitude": "44.37482960"
  },
  {
    "Id": 222,
    "AddressCountryId": 209,
    "Name": "Aragon",
    "StateCode": "AR",
    "Latitude": "41.59762750",
    "Longitude": "-0.90566230"
  },
  {
    "Id": 223,
    "AddressCountryId": 242,
    "Name": "Aragua",
    "StateCode": "D",
    "Latitude": "10.06357580",
    "Longitude": "-67.28478750"
  },
  {
    "Id": 224,
    "AddressCountryId": 12,
    "Name": "Ararat Province",
    "StateCode": "AR",
    "Latitude": "39.91394150",
    "Longitude": "44.72000040"
  },
  {
    "Id": 225,
    "AddressCountryId": 48,
    "Name": "Arauca",
    "StateCode": "ARA",
    "Latitude": "6.54730600",
    "Longitude": "-71.00223110"
  },
  {
    "Id": 226,
    "AddressCountryId": 86,
    "Name": "Arcadia Prefecture",
    "StateCode": "12",
    "Latitude": "37.55578250",
    "Longitude": "22.33377690"
  },
  {
    "Id": 227,
    "AddressCountryId": 48,
    "Name": "Archipiélago de San Andrés, Providencia y Santa Catalina",
    "StateCode": "SAP",
    "Latitude": "12.55673240",
    "Longitude": "-81.71852530"
  },
  {
    "Id": 228,
    "AddressCountryId": 104,
    "Name": "Ardabil",
    "StateCode": "24",
    "Latitude": "38.48532760",
    "Longitude": "47.89112090"
  },
  {
    "Id": 229,
    "AddressCountryId": 228,
    "Name": "Ardahan",
    "StateCode": "75",
    "Latitude": "41.11129640",
    "Longitude": "42.78316740"
  },
  {
    "Id": 230,
    "AddressCountryId": 76,
    "Name": "Ardèche",
    "StateCode": "07",
    "Latitude": "44.81486950",
    "Longitude": "3.81334830"
  },
  {
    "Id": 231,
    "AddressCountryId": 76,
    "Name": "Ardennes",
    "StateCode": "08",
    "Latitude": "49.69759510",
    "Longitude": "4.14895760"
  },
  {
    "Id": 232,
    "AddressCountryId": 235,
    "Name": "Ards",
    "StateCode": "ARD",
    "Latitude": "42.13918510",
    "Longitude": "-87.86149720"
  },
  {
    "Id": 233,
    "AddressCountryId": 235,
    "Name": "Ards and North Down",
    "StateCode": "AND",
    "Latitude": "54.58996450",
    "Longitude": "-5.59849720"
  },
  {
    "Id": 234,
    "AddressCountryId": 173,
    "Name": "Arequipa",
    "StateCode": "ARE",
    "Latitude": "-16.40904740",
    "Longitude": "-71.53745100"
  },
  {
    "Id": 235,
    "AddressCountryId": 181,
    "Name": "Arges",
    "StateCode": "AG",
    "Latitude": "45.07225270",
    "Longitude": "24.81427260"
  },
  {
    "Id": 236,
    "AddressCountryId": 86,
    "Name": "Argolis Regional Unit",
    "StateCode": "11",
    "Latitude": null,
    "Longitude": null
  },
  {
    "Id": 237,
    "AddressCountryId": 235,
    "Name": "Argyll and Bute",
    "StateCode": "AGB",
    "Latitude": "56.40062140",
    "Longitude": "-5.48074800"
  },
  {
    "Id": 238,
    "AddressCountryId": 227,
    "Name": "Ariana Governorate",
    "StateCode": "12",
    "Latitude": "36.99227510",
    "Longitude": "10.12551640"
  },
  {
    "Id": 239,
    "AddressCountryId": 44,
    "Name": "Arica y Parinacota",
    "StateCode": "AP",
    "Latitude": "-18.59404850",
    "Longitude": "-69.47845410"
  },
  {
    "Id": 240,
    "AddressCountryId": 76,
    "Name": "Ariège",
    "StateCode": "09",
    "Latitude": "42.94347830",
    "Longitude": "0.94048640"
  },
  {
    "Id": 241,
    "AddressCountryId": 226,
    "Name": "Arima",
    "StateCode": "ARI",
    "Latitude": "46.79316040",
    "Longitude": "-71.25843110"
  },
  {
    "Id": 242,
    "AddressCountryId": 236,
    "Name": "Arizona",
    "StateCode": "AZ",
    "Latitude": "34.04892810",
    "Longitude": "-111.09373110"
  },
  {
    "Id": 243,
    "AddressCountryId": 236,
    "Name": "Arkansas",
    "StateCode": "AR",
    "Latitude": "35.20105000",
    "Longitude": "-91.83183340"
  },
  {
    "Id": 244,
    "AddressCountryId": 146,
    "Name": "Arkhangai Province",
    "StateCode": "073",
    "Latitude": "47.89711010",
    "Longitude": "100.72401650"
  },
  {
    "Id": 245,
    "AddressCountryId": 182,
    "Name": "Arkhangelsk",
    "StateCode": "ARK",
    "Latitude": "64.54585490",
    "Longitude": "40.55057690"
  },
  {
    "Id": 246,
    "AddressCountryId": 235,
    "Name": "Armagh City and District Council",
    "StateCode": "ARM",
    "Latitude": "54.39325920",
    "Longitude": "-6.45634010"
  },
  {
    "Id": 247,
    "AddressCountryId": 235,
    "Name": "Armagh, Banbridge and Craigavon",
    "StateCode": "ABC",
    "Latitude": "54.39325920",
    "Longitude": "-6.45634010"
  },
  {
    "Id": 248,
    "AddressCountryId": 12,
    "Name": "Armavir Region",
    "StateCode": "AV",
    "Latitude": "40.15546310",
    "Longitude": "44.03724460"
  },
  {
    "Id": 249,
    "AddressCountryId": 61,
    "Name": "Arta Region",
    "StateCode": "AR",
    "Latitude": "11.52555280",
    "Longitude": "42.84794740"
  },
  {
    "Id": 250,
    "AddressCountryId": 55,
    "Name": "Artemisa Province",
    "StateCode": "15",
    "Latitude": "22.75229030",
    "Longitude": "-82.99316070"
  },
  {
    "Id": 251,
    "AddressCountryId": 96,
    "Name": "Artibonite",
    "StateCode": "AR",
    "Latitude": "19.36290200",
    "Longitude": "-72.42581450"
  },
  {
    "Id": 252,
    "AddressCountryId": 238,
    "Name": "Artigas Department",
    "StateCode": "AR",
    "Latitude": "-30.61751120",
    "Longitude": "-56.95945590"
  },
  {
    "Id": 253,
    "AddressCountryId": 228,
    "Name": "Artvin",
    "StateCode": "08",
    "Latitude": "41.07866400",
    "Longitude": "41.76282230"
  },
  {
    "Id": 254,
    "AddressCountryId": 232,
    "Name": "Arua District",
    "StateCode": "303",
    "Latitude": "2.99598460",
    "Longitude": "31.17103890"
  },
  {
    "Id": 255,
    "AddressCountryId": 102,
    "Name": "Arunachal Pradesh",
    "StateCode": "AR",
    "Latitude": "28.21799940",
    "Longitude": "94.72775280"
  },
  {
    "Id": 256,
    "AddressCountryId": 220,
    "Name": "Arusha",
    "StateCode": "01",
    "Latitude": "-3.38692540",
    "Longitude": "36.68299270"
  },
  {
    "Id": 257,
    "AddressCountryId": 217,
    "Name": "As-Suwayda Governorate",
    "StateCode": "SU",
    "Latitude": "32.79891560",
    "Longitude": "36.78195050"
  },
  {
    "Id": 258,
    "AddressCountryId": 235,
    "Name": "Ascension Island",
    "StateCode": "SH-AC",
    "Latitude": "-7.94671660",
    "Longitude": "-14.35591580"
  },
  {
    "Id": 259,
    "AddressCountryId": 166,
    "Name": "Ash Sharqiyah North Governorate",
    "StateCode": "SS",
    "Latitude": "22.71411960",
    "Longitude": "58.53080640"
  },
  {
    "Id": 260,
    "AddressCountryId": 166,
    "Name": "Ash Sharqiyah Region",
    "StateCode": "SH",
    "Latitude": "22.71411960",
    "Longitude": "58.53080640"
  },
  {
    "Id": 261,
    "AddressCountryId": 166,
    "Name": "Ash Sharqiyah South Governorate",
    "StateCode": "SJ",
    "Latitude": "22.01582490",
    "Longitude": "59.32519220"
  },
  {
    "Id": 262,
    "AddressCountryId": 84,
    "Name": "Ashanti",
    "StateCode": "AH",
    "Latitude": "6.74704360",
    "Longitude": "-1.52086240"
  },
  {
    "Id": 263,
    "AddressCountryId": 229,
    "Name": "Ashgabat",
    "StateCode": "S",
    "Latitude": "37.96007660",
    "Longitude": "58.32606290"
  },
  {
    "Id": 264,
    "AddressCountryId": 149,
    "Name": "Assa-Zag (EH-partial)",
    "StateCode": "ASZ",
    "Latitude": "28.14023950",
    "Longitude": "-9.72326730"
  },
  {
    "Id": 265,
    "AddressCountryId": 139,
    "Name": "Assaba Region",
    "StateCode": "03",
    "Latitude": "16.77595580",
    "Longitude": "-11.52480550"
  },
  {
    "Id": 266,
    "AddressCountryId": 102,
    "Name": "Assam",
    "StateCode": "AS",
    "Latitude": "26.20060430",
    "Longitude": "92.93757390"
  },
  {
    "Id": 267,
    "AddressCountryId": 16,
    "Name": "Astara District",
    "StateCode": "AST",
    "Latitude": "38.49378450",
    "Longitude": "48.69443650"
  },
  {
    "Id": 268,
    "AddressCountryId": 182,
    "Name": "Astrakhan Oblast",
    "StateCode": "AST",
    "Latitude": "46.13211660",
    "Longitude": "48.06101150"
  },
  {
    "Id": 269,
    "AddressCountryId": 209,
    "Name": "Asturias",
    "StateCode": "AS",
    "Latitude": "43.36139530",
    "Longitude": "-5.85932670"
  },
  {
    "Id": 270,
    "AddressCountryId": 66,
    "Name": "Aswan",
    "StateCode": "ASN",
    "Latitude": "23.69664980",
    "Longitude": "32.71813750"
  },
  {
    "Id": 271,
    "AddressCountryId": 66,
    "Name": "Asyut",
    "StateCode": "AST",
    "Latitude": "27.21338310",
    "Longitude": "31.44561790"
  },
  {
    "Id": 272,
    "AddressCountryId": 44,
    "Name": "Atacama",
    "StateCode": "AT",
    "Latitude": "-27.56605580",
    "Longitude": "-70.05031400"
  },
  {
    "Id": 273,
    "AddressCountryId": 23,
    "Name": "Atakora Department",
    "StateCode": "AK",
    "Latitude": "10.79549310",
    "Longitude": "1.67606910"
  },
  {
    "Id": 274,
    "AddressCountryId": 48,
    "Name": "Atlántico",
    "StateCode": "ATL",
    "Latitude": "10.69661590",
    "Longitude": "-74.87410450"
  },
  {
    "Id": 275,
    "AddressCountryId": 98,
    "Name": "Atlántida Department",
    "StateCode": "AT",
    "Latitude": "15.66962830",
    "Longitude": "-87.14228950"
  },
  {
    "Id": 276,
    "AddressCountryId": 23,
    "Name": "Atlantique Department",
    "StateCode": "AQ",
    "Latitude": "6.65883910",
    "Longitude": "2.22366670"
  },
  {
    "Id": 277,
    "AddressCountryId": 119,
    "Name": "Attapeu Province",
    "StateCode": "AT",
    "Latitude": "14.93634000",
    "Longitude": "107.10119310"
  },
  {
    "Id": 278,
    "AddressCountryId": 135,
    "Name": "Attard",
    "StateCode": "01",
    "Latitude": "35.89049670",
    "Longitude": "14.41993220"
  },
  {
    "Id": 279,
    "AddressCountryId": 86,
    "Name": "Attica Region",
    "StateCode": "I",
    "Latitude": "38.04575680",
    "Longitude": "23.85847370"
  },
  {
    "Id": 280,
    "AddressCountryId": 191,
    "Name": "Atua",
    "StateCode": "AT",
    "Latitude": "-13.97870530",
    "Longitude": "-171.62542830"
  },
  {
    "Id": 281,
    "AddressCountryId": 113,
    "Name": "Atyrau Region",
    "StateCode": "ATY",
    "Latitude": "47.10761880",
    "Longitude": "51.91413300"
  },
  {
    "Id": 282,
    "AddressCountryId": 197,
    "Name": "Au Cap",
    "StateCode": "04",
    "Latitude": "-4.70597230",
    "Longitude": "55.50810120"
  },
  {
    "Id": 283,
    "AddressCountryId": 76,
    "Name": "Aube",
    "StateCode": "10",
    "Latitude": "48.31975470",
    "Longitude": "3.56371040"
  },
  {
    "Id": 284,
    "AddressCountryId": 120,
    "Name": "Auce Municipality",
    "StateCode": "010",
    "Latitude": "56.46016800",
    "Longitude": "22.90547810"
  },
  {
    "Id": 285,
    "AddressCountryId": 157,
    "Name": "Auckland Region",
    "StateCode": "AUK",
    "Latitude": "-36.66753280",
    "Longitude": "174.77333250"
  },
  {
    "Id": 286,
    "AddressCountryId": 76,
    "Name": "Aude",
    "StateCode": "11",
    "Latitude": "43.05411400",
    "Longitude": "1.90384760"
  },
  {
    "Id": 287,
    "AddressCountryId": 174,
    "Name": "Aurora",
    "StateCode": "AUR",
    "Latitude": "36.97089100",
    "Longitude": "-93.71797900"
  },
  {
    "Id": 288,
    "AddressCountryId": 14,
    "Name": "Australian Capital Territory",
    "StateCode": "ACT",
    "Latitude": "-35.47346790",
    "Longitude": "149.01236790"
  },
  {
    "Id": 289,
    "AddressCountryId": 174,
    "Name": "Autonomous Region in Muslim Mindanao",
    "StateCode": "14",
    "Latitude": "6.95683130",
    "Longitude": "124.24215970"
  },
  {
    "Id": 290,
    "AddressCountryId": 82,
    "Name": "Autonomous Republic of Abkhazia",
    "StateCode": "AB",
    "Latitude": "43.00155440",
    "Longitude": "41.02340700"
  },
  {
    "Id": 291,
    "AddressCountryId": 233,
    "Name": "Autonomous Republic of Crimea",
    "StateCode": "43",
    "Latitude": "44.95211700",
    "Longitude": "34.10241700"
  },
  {
    "Id": 292,
    "AddressCountryId": 76,
    "Name": "Auvergne-Rhône-Alpes",
    "StateCode": "ARA",
    "Latitude": "45.44714310",
    "Longitude": "4.38525070"
  },
  {
    "Id": 293,
    "AddressCountryId": 177,
    "Name": "Aveiro",
    "StateCode": "01",
    "Latitude": "40.72090230",
    "Longitude": "-8.57210160"
  },
  {
    "Id": 294,
    "AddressCountryId": 76,
    "Name": "Aveyron",
    "StateCode": "12",
    "Latitude": "44.31563620",
    "Longitude": "2.08523790"
  },
  {
    "Id": 295,
    "AddressCountryId": 209,
    "Name": "Ávila",
    "StateCode": "AV",
    "Latitude": "40.69345110",
    "Longitude": "-4.89356270"
  },
  {
    "Id": 296,
    "AddressCountryId": 204,
    "Name": "Awdal Region",
    "StateCode": "AW",
    "Latitude": "10.63342850",
    "Longitude": "43.32946600"
  },
  {
    "Id": 297,
    "AddressCountryId": 173,
    "Name": "Ayacucho",
    "StateCode": "AYA",
    "Latitude": "-13.16387370",
    "Longitude": "-74.22356410"
  },
  {
    "Id": 298,
    "AddressCountryId": 228,
    "Name": "Aydın",
    "StateCode": "09",
    "Latitude": "37.81170330",
    "Longitude": "28.48639630"
  },
  {
    "Id": 299,
    "AddressCountryId": 151,
    "Name": "Ayeyarwady Region",
    "StateCode": "07",
    "Latitude": "17.03421250",
    "Longitude": "95.22666750"
  },
  {
    "Id": 300,
    "AddressCountryId": 167,
    "Name": "Azad Kashmir",
    "StateCode": "JK",
    "Latitude": "33.92590550",
    "Longitude": "73.78103340"
  },
  {
    "Id": 301,
    "AddressCountryId": 149,
    "Name": "Azilal",
    "StateCode": "AZI",
    "Latitude": "32.00426200",
    "Longitude": "-6.57833870"
  },
  {
    "Id": 302,
    "AddressCountryId": 63,
    "Name": "Azua Province",
    "StateCode": "02",
    "Latitude": "18.45527090",
    "Longitude": "-70.73809280"
  },
  {
    "Id": 303,
    "AddressCountryId": 65,
    "Name": "Azuay",
    "StateCode": "A",
    "Latitude": "-2.89430680",
    "Longitude": "-78.99683440"
  },
  {
    "Id": 304,
    "AddressCountryId": 74,
    "Name": "Ba",
    "StateCode": "01",
    "Latitude": "36.06138930",
    "Longitude": "-95.80058720"
  },
  {
    "Id": 305,
    "AddressCountryId": 243,
    "Name": "Bà Rịa-Vũng Tàu",
    "StateCode": "43",
    "Latitude": "10.54173970",
    "Longitude": "107.24299760"
  },
  {
    "Id": 306,
    "AddressCountryId": 121,
    "Name": "Baalbek-Hermel Governorate",
    "StateCode": "BH",
    "Latitude": "34.26585560",
    "Longitude": "36.34980970"
  },
  {
    "Id": 307,
    "AddressCountryId": 16,
    "Name": "Babek District",
    "StateCode": "BAB",
    "Latitude": "39.15076130",
    "Longitude": "45.44853680"
  },
  {
    "Id": 308,
    "AddressCountryId": 120,
    "Name": "Babīte Municipality",
    "StateCode": "012",
    "Latitude": "56.95415500",
    "Longitude": "23.94539900"
  },
  {
    "Id": 309,
    "AddressCountryId": 105,
    "Name": "Babylon Governorate",
    "StateCode": "BB",
    "Latitude": "32.46819100",
    "Longitude": "44.55019350"
  },
  {
    "Id": 310,
    "AddressCountryId": 243,
    "Name": "Bắc Giang",
    "StateCode": "54",
    "Latitude": "21.28199210",
    "Longitude": "106.19747690"
  },
  {
    "Id": 311,
    "AddressCountryId": 243,
    "Name": "Bắc Kạn",
    "StateCode": "53",
    "Latitude": "22.30329230",
    "Longitude": "105.87600400"
  },
  {
    "Id": 312,
    "AddressCountryId": 243,
    "Name": "Bạc Liêu",
    "StateCode": "55",
    "Latitude": "9.29400270",
    "Longitude": "105.72156630"
  },
  {
    "Id": 313,
    "AddressCountryId": 243,
    "Name": "Bắc Ninh",
    "StateCode": "56",
    "Latitude": "21.12144400",
    "Longitude": "106.11105010"
  },
  {
    "Id": 314,
    "AddressCountryId": 181,
    "Name": "Bacău County",
    "StateCode": "BC",
    "Latitude": "46.32581840",
    "Longitude": "26.66237800"
  },
  {
    "Id": 315,
    "AddressCountryId": 100,
    "Name": "Bács-Kiskun County",
    "StateCode": "BK",
    "Latitude": "46.56614370",
    "Longitude": "19.42724640"
  },
  {
    "Id": 316,
    "AddressCountryId": 1,
    "Name": "Badakhshan",
    "StateCode": "BDS",
    "Latitude": "36.73477250",
    "Longitude": "70.81199530"
  },
  {
    "Id": 317,
    "AddressCountryId": 83,
    "Name": "Baden-Württemberg",
    "StateCode": "BW",
    "Latitude": "48.66160370",
    "Longitude": "9.35013360"
  },
  {
    "Id": 318,
    "AddressCountryId": 1,
    "Name": "Badghis",
    "StateCode": "BDG",
    "Latitude": "35.16713390",
    "Longitude": "63.76953840"
  },
  {
    "Id": 319,
    "AddressCountryId": 210,
    "Name": "Badulla District",
    "StateCode": "81",
    "Latitude": "6.99340090",
    "Longitude": "81.05498150"
  },
  {
    "Id": 320,
    "AddressCountryId": 94,
    "Name": "Bafatá",
    "StateCode": "BA",
    "Latitude": "12.17352430",
    "Longitude": "-14.65295200"
  },
  {
    "Id": 321,
    "AddressCountryId": 53,
    "Name": "Bafing Region",
    "StateCode": "17",
    "Latitude": "8.32520470",
    "Longitude": "-7.52472430"
  },
  {
    "Id": 322,
    "AddressCountryId": 18,
    "Name": "Bagerhat District",
    "StateCode": "05",
    "Latitude": "22.66024360",
    "Longitude": "89.78954780"
  },
  {
    "Id": 323,
    "AddressCountryId": 105,
    "Name": "Baghdad Governorate",
    "StateCode": "BG",
    "Latitude": "33.31526180",
    "Longitude": "44.36606530"
  },
  {
    "Id": 324,
    "AddressCountryId": 1,
    "Name": "Baghlan",
    "StateCode": "BGL",
    "Latitude": "36.17890260",
    "Longitude": "68.74530640"
  },
  {
    "Id": 325,
    "AddressCountryId": 154,
    "Name": "Bagmati Zone",
    "StateCode": "BA",
    "Latitude": "28.03675770",
    "Longitude": "85.43755740"
  },
  {
    "Id": 326,
    "AddressCountryId": 151,
    "Name": "Bago",
    "StateCode": "02",
    "Latitude": "17.32207110",
    "Longitude": "96.46632860"
  },
  {
    "Id": 327,
    "AddressCountryId": 18,
    "Name": "Bahadia",
    "StateCode": "33",
    "Latitude": "23.78987120",
    "Longitude": "90.16714830"
  },
  {
    "Id": 328,
    "AddressCountryId": 31,
    "Name": "Bahia",
    "StateCode": "BA",
    "Latitude": "-11.40987400",
    "Longitude": "-41.28085700"
  },
  {
    "Id": 329,
    "AddressCountryId": 43,
    "Name": "Bahr el Gazel",
    "StateCode": "BG",
    "Latitude": "14.77022660",
    "Longitude": "16.91225100"
  },
  {
    "Id": 330,
    "AddressCountryId": 197,
    "Name": "Baie Lazare",
    "StateCode": "06",
    "Latitude": "-4.74825250",
    "Longitude": "55.48593630"
  },
  {
    "Id": 331,
    "AddressCountryId": 197,
    "Name": "Baie Sainte Anne",
    "StateCode": "07",
    "Latitude": "47.05259000",
    "Longitude": "-64.95245790"
  },
  {
    "Id": 332,
    "AddressCountryId": 113,
    "Name": "Baikonur",
    "StateCode": "BAY",
    "Latitude": "45.96458510",
    "Longitude": "63.30524280"
  },
  {
    "Id": 333,
    "AddressCountryId": 153,
    "Name": "Baiti District",
    "StateCode": "05",
    "Latitude": "-0.51043100",
    "Longitude": "166.92757440"
  },
  {
    "Id": 334,
    "AddressCountryId": 142,
    "Name": "Baja California",
    "StateCode": "BCN",
    "Latitude": "30.84063380",
    "Longitude": "-115.28375850"
  },
  {
    "Id": 335,
    "AddressCountryId": 142,
    "Name": "Baja California Sur",
    "StateCode": "BCS",
    "Latitude": "26.04444460",
    "Longitude": "-111.66607250"
  },
  {
    "Id": 336,
    "AddressCountryId": 91,
    "Name": "Baja Verapaz Department",
    "StateCode": "BV",
    "Latitude": "15.12558670",
    "Longitude": "-90.37483540"
  },
  {
    "Id": 337,
    "AddressCountryId": 236,
    "Name": "Baker Island",
    "StateCode": "UM-81",
    "Latitude": "0.19362660",
    "Longitude": "-176.47690800"
  },
  {
    "Id": 338,
    "AddressCountryId": 204,
    "Name": "Bakool",
    "StateCode": "BK",
    "Latitude": "4.36572210",
    "Longitude": "44.09603110"
  },
  {
    "Id": 339,
    "AddressCountryId": 16,
    "Name": "Baku",
    "StateCode": "BA",
    "Latitude": "40.40926170",
    "Longitude": "49.86709240"
  },
  {
    "Id": 340,
    "AddressCountryId": 131,
    "Name": "Balaka District",
    "StateCode": "BA",
    "Latitude": "-15.05065950",
    "Longitude": "35.08285880"
  },
  {
    "Id": 341,
    "AddressCountryId": 16,
    "Name": "Balakan District",
    "StateCode": "BAL",
    "Latitude": "41.70375090",
    "Longitude": "46.40442130"
  },
  {
    "Id": 342,
    "AddressCountryId": 120,
    "Name": "Baldone Municipality",
    "StateCode": "013",
    "Latitude": "56.74246000",
    "Longitude": "24.39115440"
  },
  {
    "Id": 343,
    "AddressCountryId": 35,
    "Name": "Balé Province",
    "StateCode": "BAL",
    "Latitude": "11.78206020",
    "Longitude": "-3.01757120"
  },
  {
    "Id": 344,
    "AddressCountryId": 209,
    "Name": "Balearic Islands",
    "StateCode": "PM",
    "Latitude": "39.35877590",
    "Longitude": "2.73563280"
  },
  {
    "Id": 345,
    "AddressCountryId": 228,
    "Name": "Balıkesir",
    "StateCode": "10",
    "Latitude": "39.76167820",
    "Longitude": "28.11226790"
  },
  {
    "Id": 346,
    "AddressCountryId": 103,
    "Name": "Bali",
    "StateCode": "BA",
    "Latitude": "-8.34053890",
    "Longitude": "115.09195090"
  },
  {
    "Id": 347,
    "AddressCountryId": 229,
    "Name": "Balkan Region",
    "StateCode": "B",
    "Latitude": "41.81014720",
    "Longitude": "21.09373110"
  },
  {
    "Id": 348,
    "AddressCountryId": 1,
    "Name": "Balkh",
    "StateCode": "BAL",
    "Latitude": "36.75506030",
    "Longitude": "66.89753720"
  },
  {
    "Id": 349,
    "AddressCountryId": 235,
    "Name": "Ballymena Borough",
    "StateCode": "BLA",
    "Latitude": "54.86426000",
    "Longitude": "-6.27910740"
  },
  {
    "Id": 350,
    "AddressCountryId": 235,
    "Name": "Ballymoney",
    "StateCode": "BLY",
    "Latitude": "55.07048880",
    "Longitude": "-6.51737080"
  },
  {
    "Id": 351,
    "AddressCountryId": 167,
    "Name": "Balochistan",
    "StateCode": "BA",
    "Latitude": "28.49073320",
    "Longitude": "65.09577920"
  },
  {
    "Id": 352,
    "AddressCountryId": 112,
    "Name": "Balqa Governorate",
    "StateCode": "BA",
    "Latitude": "32.03668060",
    "Longitude": "35.72884800"
  },
  {
    "Id": 353,
    "AddressCountryId": 144,
    "Name": "Bălți Municipality",
    "StateCode": "BA",
    "Latitude": "47.75399470",
    "Longitude": "27.91841480"
  },
  {
    "Id": 354,
    "AddressCountryId": 120,
    "Name": "Baltinava Municipality",
    "StateCode": "014",
    "Latitude": "56.94584680",
    "Longitude": "27.64410660"
  },
  {
    "Id": 355,
    "AddressCountryId": 120,
    "Name": "Balvi Municipality",
    "StateCode": "015",
    "Latitude": "57.13262400",
    "Longitude": "27.26466850"
  },
  {
    "Id": 356,
    "AddressCountryId": 135,
    "Name": "Balzan",
    "StateCode": "02",
    "Latitude": "35.89574140",
    "Longitude": "14.45340650"
  },
  {
    "Id": 357,
    "AddressCountryId": 125,
    "Name": "Balzers",
    "StateCode": "01",
    "Latitude": "42.05283570",
    "Longitude": "-88.03668480"
  },
  {
    "Id": 358,
    "AddressCountryId": 35,
    "Name": "Bam Province",
    "StateCode": "BAM",
    "Latitude": "13.44613300",
    "Longitude": "-1.59839590"
  },
  {
    "Id": 359,
    "AddressCountryId": 134,
    "Name": "Bamako",
    "StateCode": "BKO",
    "Latitude": "12.63923160",
    "Longitude": "-8.00288920"
  },
  {
    "Id": 360,
    "AddressCountryId": 42,
    "Name": "Bamingui-Bangoran Prefecture",
    "StateCode": "BB",
    "Latitude": "8.27334550",
    "Longitude": "20.71224650"
  },
  {
    "Id": 361,
    "AddressCountryId": 1,
    "Name": "Bamyan",
    "StateCode": "BAM",
    "Latitude": "34.81000670",
    "Longitude": "67.82121040"
  },
  {
    "Id": 362,
    "AddressCountryId": 204,
    "Name": "Banaadir",
    "StateCode": "BN",
    "Latitude": "2.11873750",
    "Longitude": "45.33694590"
  },
  {
    "Id": 363,
    "AddressCountryId": 235,
    "Name": "Banbridge",
    "StateCode": "BNB",
    "Latitude": "54.34872900",
    "Longitude": "-6.27048030"
  },
  {
    "Id": 364,
    "AddressCountryId": 18,
    "Name": "Bandarban District",
    "StateCode": "01",
    "Latitude": "21.83110020",
    "Longitude": "92.36863210"
  },
  {
    "Id": 365,
    "AddressCountryId": 221,
    "Name": "Bangkok",
    "StateCode": "10",
    "Latitude": "13.75633090",
    "Longitude": "100.50176510"
  },
  {
    "Id": 366,
    "AddressCountryId": 42,
    "Name": "Bangui",
    "StateCode": "BGF",
    "Latitude": "4.39467350",
    "Longitude": "18.55818990"
  },
  {
    "Id": 367,
    "AddressCountryId": 81,
    "Name": "Banjul",
    "StateCode": "B",
    "Latitude": "13.45487610",
    "Longitude": "-16.57903230"
  },
  {
    "Id": 368,
    "AddressCountryId": 201,
    "Name": "Banská Bystrica Region",
    "StateCode": "BC",
    "Latitude": "48.53124990",
    "Longitude": "19.38287400"
  },
  {
    "Id": 369,
    "AddressCountryId": 37,
    "Name": "Banteay Meanchey",
    "StateCode": "1",
    "Latitude": "13.75319140",
    "Longitude": "102.98961500"
  },
  {
    "Id": 370,
    "AddressCountryId": 103,
    "Name": "Banten",
    "StateCode": "BT",
    "Latitude": "-6.40581720",
    "Longitude": "106.06401790"
  },
  {
    "Id": 371,
    "AddressCountryId": 35,
    "Name": "Banwa Province",
    "StateCode": "BAN",
    "Latitude": "12.13230530",
    "Longitude": "-4.15137640"
  },
  {
    "Id": 372,
    "AddressCountryId": 63,
    "Name": "Baoruco Province",
    "StateCode": "03",
    "Latitude": "18.48798980",
    "Longitude": "-71.41822490"
  },
  {
    "Id": 373,
    "AddressCountryId": 147,
    "Name": "Bar Municipality",
    "StateCode": "02",
    "Latitude": "42.12781190",
    "Longitude": "19.14043800"
  },
  {
    "Id": 374,
    "AddressCountryId": 63,
    "Name": "Barahona Province",
    "StateCode": "04",
    "Latitude": "18.21390660",
    "Longitude": "-71.10437590"
  },
  {
    "Id": 375,
    "AddressCountryId": 100,
    "Name": "Baranya County",
    "StateCode": "BA",
    "Latitude": "46.04845850",
    "Longitude": "18.27191730"
  },
  {
    "Id": 376,
    "AddressCountryId": 10,
    "Name": "Barbuda",
    "StateCode": "10",
    "Latitude": "17.62662420",
    "Longitude": "-61.77130280"
  },
  {
    "Id": 377,
    "AddressCountryId": 16,
    "Name": "Barda District",
    "StateCode": "BAR",
    "Latitude": "40.37065550",
    "Longitude": "47.13789090"
  },
  {
    "Id": 378,
    "AddressCountryId": 18,
    "Name": "Barguna District",
    "StateCode": "02",
    "Latitude": "22.09529150",
    "Longitude": "90.11206960"
  },
  {
    "Id": 379,
    "AddressCountryId": 204,
    "Name": "Bari",
    "StateCode": "BR",
    "Latitude": "41.11714320",
    "Longitude": "16.87187150"
  },
  {
    "Id": 380,
    "AddressCountryId": 95,
    "Name": "Barima-Waini",
    "StateCode": "BA",
    "Latitude": "7.48824190",
    "Longitude": "-59.65644940"
  },
  {
    "Id": 381,
    "AddressCountryId": 242,
    "Name": "Barinas",
    "StateCode": "E",
    "Latitude": "8.62314980",
    "Longitude": "-70.23710450"
  },
  {
    "Id": 382,
    "AddressCountryId": 114,
    "Name": "Baringo",
    "StateCode": "01",
    "Latitude": "0.85549880",
    "Longitude": "36.08934060"
  },
  {
    "Id": 383,
    "AddressCountryId": 18,
    "Name": "Barisal District",
    "StateCode": "06",
    "Latitude": "22.70220980",
    "Longitude": "90.36963160"
  },
  {
    "Id": 384,
    "AddressCountryId": 18,
    "Name": "Barisal Division",
    "StateCode": "A",
    "Latitude": "22.38111310",
    "Longitude": "90.33718890"
  },
  {
    "Id": 385,
    "AddressCountryId": 40,
    "Name": "Barlavento Islands",
    "StateCode": "B",
    "Latitude": "16.82368450",
    "Longitude": "-23.99348810"
  },
  {
    "Id": 386,
    "AddressCountryId": 235,
    "Name": "Barnsley",
    "StateCode": "BNS",
    "Latitude": "34.29949560",
    "Longitude": "-84.98458090"
  },
  {
    "Id": 387,
    "AddressCountryId": 228,
    "Name": "Bartın",
    "StateCode": "74",
    "Latitude": "41.58105090",
    "Longitude": "32.46097940"
  },
  {
    "Id": 388,
    "AddressCountryId": 76,
    "Name": "Bas-Rhin",
    "StateCode": "67",
    "Latitude": "48.59864440",
    "Longitude": "7.02666760"
  },
  {
    "Id": 389,
    "AddressCountryId": 53,
    "Name": "Bas-Sassandra District",
    "StateCode": "BS",
    "Latitude": "5.27983560",
    "Longitude": "-6.15269850"
  },
  {
    "Id": 390,
    "AddressCountryId": 53,
    "Name": "Bas-Sassandra Region",
    "StateCode": "09",
    "Latitude": "5.35679160",
    "Longitude": "-6.74939930"
  },
  {
    "Id": 391,
    "AddressCountryId": 59,
    "Name": "Bas-Uélé",
    "StateCode": "BU",
    "Latitude": "3.99010090",
    "Longitude": "24.90422080"
  },
  {
    "Id": 392,
    "AddressCountryId": 144,
    "Name": "Basarabeasca District",
    "StateCode": "BS",
    "Latitude": "46.42370600",
    "Longitude": "28.89354920"
  },
  {
    "Id": 393,
    "AddressCountryId": 216,
    "Name": "Basel-Land",
    "StateCode": "BL",
    "Latitude": "47.44181220",
    "Longitude": "7.76440020"
  },
  {
    "Id": 394,
    "AddressCountryId": 216,
    "Name": "Basel-Stadt",
    "StateCode": "BS",
    "Latitude": "47.56666700",
    "Longitude": "7.60000000"
  },
  {
    "Id": 395,
    "AddressCountryId": 174,
    "Name": "Basilan",
    "StateCode": "BAS",
    "Latitude": "6.42963490",
    "Longitude": "121.98701650"
  },
  {
    "Id": 396,
    "AddressCountryId": 108,
    "Name": "Basilicata",
    "StateCode": "77",
    "Latitude": "40.64307660",
    "Longitude": "15.96998780"
  },
  {
    "Id": 397,
    "AddressCountryId": 209,
    "Name": "Basque Country",
    "StateCode": "PV",
    "Latitude": "42.98962480",
    "Longitude": "-2.61892730"
  },
  {
    "Id": 398,
    "AddressCountryId": 105,
    "Name": "Basra Governorate",
    "StateCode": "BA",
    "Latitude": "30.51142520",
    "Longitude": "47.82962530"
  },
  {
    "Id": 399,
    "AddressCountryId": 42,
    "Name": "Basse-Kotto Prefecture",
    "StateCode": "BK",
    "Latitude": "4.87193190",
    "Longitude": "21.28450250"
  },
  {
    "Id": 400,
    "AddressCountryId": 174,
    "Name": "Bataan",
    "StateCode": "BAN",
    "Latitude": "14.64168420",
    "Longitude": "120.48184460"
  },
  {
    "Id": 401,
    "AddressCountryId": 174,
    "Name": "Batanes",
    "StateCode": "BTN",
    "Latitude": "20.44850740",
    "Longitude": "121.97081290"
  },
  {
    "Id": 402,
    "AddressCountryId": 174,
    "Name": "Batangas",
    "StateCode": "BTG",
    "Latitude": "13.75646510",
    "Longitude": "121.05830760"
  },
  {
    "Id": 403,
    "AddressCountryId": 235,
    "Name": "Bath and North East Somerset",
    "StateCode": "BAS",
    "Latitude": "51.32501020",
    "Longitude": "-2.47662410"
  },
  {
    "Id": 404,
    "AddressCountryId": 43,
    "Name": "Batha Region",
    "StateCode": "BA",
    "Latitude": "13.93717750",
    "Longitude": "18.42760470"
  },
  {
    "Id": 405,
    "AddressCountryId": 118,
    "Name": "Batken Region",
    "StateCode": "B",
    "Latitude": "39.97214250",
    "Longitude": "69.85974060"
  },
  {
    "Id": 406,
    "AddressCountryId": 228,
    "Name": "Batman",
    "StateCode": "72",
    "Latitude": "37.83624960",
    "Longitude": "41.36057390"
  },
  {
    "Id": 407,
    "AddressCountryId": 4,
    "Name": "Batna",
    "StateCode": "05",
    "Latitude": "35.59659540",
    "Longitude": "5.89871390"
  },
  {
    "Id": 408,
    "AddressCountryId": 37,
    "Name": "Battambang",
    "StateCode": "2",
    "Latitude": "13.02869710",
    "Longitude": "102.98961500"
  },
  {
    "Id": 409,
    "AddressCountryId": 210,
    "Name": "Batticaloa District",
    "StateCode": "51",
    "Latitude": "7.82927810",
    "Longitude": "81.47183870"
  },
  {
    "Id": 410,
    "AddressCountryId": 64,
    "Name": "Baucau Municipality",
    "StateCode": "BA",
    "Latitude": "-8.47143080",
    "Longitude": "126.45759910"
  },
  {
    "Id": 411,
    "AddressCountryId": 160,
    "Name": "Bauchi",
    "StateCode": "BA",
    "Latitude": "10.77606240",
    "Longitude": "9.99919430"
  },
  {
    "Id": 412,
    "AddressCountryId": 120,
    "Name": "Bauska Municipality",
    "StateCode": "016",
    "Latitude": "56.41018680",
    "Longitude": "24.20006890"
  },
  {
    "Id": 413,
    "AddressCountryId": 83,
    "Name": "Bavaria",
    "StateCode": "BY",
    "Latitude": "48.79044720",
    "Longitude": "11.49788950"
  },
  {
    "Id": 414,
    "AddressCountryId": 204,
    "Name": "Bay",
    "StateCode": "BY",
    "Latitude": "37.03655340",
    "Longitude": "-95.61747670"
  },
  {
    "Id": 415,
    "AddressCountryId": 98,
    "Name": "Bay Islands Department",
    "StateCode": "IB",
    "Latitude": "16.48266140",
    "Longitude": "-85.87932520"
  },
  {
    "Id": 416,
    "AddressCountryId": 157,
    "Name": "Bay of Plenty Region",
    "StateCode": "BOP",
    "Latitude": "-37.42339170",
    "Longitude": "176.74163740"
  },
  {
    "Id": 417,
    "AddressCountryId": 146,
    "Name": "Bayan-Ölgii Province",
    "StateCode": "071",
    "Latitude": "48.39832540",
    "Longitude": "89.66259150"
  },
  {
    "Id": 418,
    "AddressCountryId": 146,
    "Name": "Bayankhongor Province",
    "StateCode": "069",
    "Latitude": "45.15267070",
    "Longitude": "100.10736670"
  },
  {
    "Id": 419,
    "AddressCountryId": 228,
    "Name": "Bayburt",
    "StateCode": "69",
    "Latitude": "40.26032000",
    "Longitude": "40.22804800"
  },
  {
    "Id": 420,
    "AddressCountryId": 160,
    "Name": "Bayelsa",
    "StateCode": "BY",
    "Latitude": "4.77190710",
    "Longitude": "6.06985260"
  },
  {
    "Id": 421,
    "AddressCountryId": 35,
    "Name": "Bazèga Province",
    "StateCode": "BAZ",
    "Latitude": "11.97676920",
    "Longitude": "-1.44346900"
  },
  {
    "Id": 422,
    "AddressCountryId": 140,
    "Name": "Beau Bassin-Rose Hill",
    "StateCode": "BR",
    "Latitude": "-20.22303050",
    "Longitude": "57.46838300"
  },
  {
    "Id": 423,
    "AddressCountryId": 197,
    "Name": "Beau Vallon",
    "StateCode": "08",
    "Latitude": "-4.62109670",
    "Longitude": "55.42778020"
  },
  {
    "Id": 424,
    "AddressCountryId": 4,
    "Name": "Béchar",
    "StateCode": "08",
    "Latitude": "31.62380980",
    "Longitude": "-2.21624430"
  },
  {
    "Id": 425,
    "AddressCountryId": 235,
    "Name": "Bedford",
    "StateCode": "BDF",
    "Latitude": "32.84401700",
    "Longitude": "-97.14306710"
  },
  {
    "Id": 426,
    "AddressCountryId": 66,
    "Name": "Beheira",
    "StateCode": "BH",
    "Latitude": "30.84809860",
    "Longitude": "30.34355060"
  },
  {
    "Id": 427,
    "AddressCountryId": 45,
    "Name": "Beijing",
    "StateCode": "BJ",
    "Latitude": "39.90419990",
    "Longitude": "116.40739630"
  },
  {
    "Id": 428,
    "AddressCountryId": 121,
    "Name": "Beirut Governorate",
    "StateCode": "BA",
    "Latitude": "33.88861060",
    "Longitude": "35.49547720"
  },
  {
    "Id": 429,
    "AddressCountryId": 177,
    "Name": "Beja",
    "StateCode": "02",
    "Latitude": "37.96877860",
    "Longitude": "-7.87216000"
  },
  {
    "Id": 430,
    "AddressCountryId": 4,
    "Name": "Béjaïa",
    "StateCode": "06",
    "Latitude": "36.75152580",
    "Longitude": "5.05568370"
  },
  {
    "Id": 431,
    "AddressCountryId": 100,
    "Name": "Békés County",
    "StateCode": "BE",
    "Latitude": "46.67048990",
    "Longitude": "21.04349960"
  },
  {
    "Id": 432,
    "AddressCountryId": 100,
    "Name": "Békéscsaba",
    "StateCode": "BC",
    "Latitude": "46.67359390",
    "Longitude": "21.08773090"
  },
  {
    "Id": 433,
    "AddressCountryId": 197,
    "Name": "Bel Air",
    "StateCode": "09",
    "Latitude": "34.10024550",
    "Longitude": "-118.45946300"
  },
  {
    "Id": 434,
    "AddressCountryId": 197,
    "Name": "Bel Ombre",
    "StateCode": "10",
    "Latitude": "-20.50100950",
    "Longitude": "57.42596240"
  },
  {
    "Id": 435,
    "AddressCountryId": 33,
    "Name": "Belait District",
    "StateCode": "BE",
    "Latitude": "4.37507490",
    "Longitude": "114.61928990"
  },
  {
    "Id": 436,
    "AddressCountryId": 235,
    "Name": "Belfast district",
    "StateCode": "BFS",
    "Latitude": "54.61703660",
    "Longitude": "-5.95318610"
  },
  {
    "Id": 437,
    "AddressCountryId": 182,
    "Name": "Belgorod Oblast",
    "StateCode": "BEL",
    "Latitude": "50.71069260",
    "Longitude": "37.75333770"
  },
  {
    "Id": 438,
    "AddressCountryId": 196,
    "Name": "Belgrade",
    "StateCode": "00",
    "Latitude": "44.78656800",
    "Longitude": "20.44892160"
  },
  {
    "Id": 439,
    "AddressCountryId": 22,
    "Name": "Belize District",
    "StateCode": "BZ",
    "Latitude": "17.56776790",
    "Longitude": "-88.40160410"
  },
  {
    "Id": 440,
    "AddressCountryId": 202,
    "Name": "Beltinci Municipality",
    "StateCode": "002",
    "Latitude": "46.60791530",
    "Longitude": "16.23651270"
  },
  {
    "Id": 441,
    "AddressCountryId": 227,
    "Name": "Ben Arous Governorate",
    "StateCode": "13",
    "Latitude": "36.64356060",
    "Longitude": "10.21515780"
  },
  {
    "Id": 442,
    "AddressCountryId": 243,
    "Name": "Bến Tre",
    "StateCode": "50",
    "Latitude": "10.24335560",
    "Longitude": "106.37555100"
  },
  {
    "Id": 443,
    "AddressCountryId": 144,
    "Name": "Bender Municipality",
    "StateCode": "BD",
    "Latitude": "46.82275510",
    "Longitude": "29.46201010"
  },
  {
    "Id": 444,
    "AddressCountryId": 202,
    "Name": "Benedikt Municipality",
    "StateCode": "148",
    "Latitude": "46.61558410",
    "Longitude": "15.89572810"
  },
  {
    "Id": 445,
    "AddressCountryId": 58,
    "Name": "Benešov",
    "StateCode": "201",
    "Latitude": "49.69008280",
    "Longitude": "14.77643990"
  },
  {
    "Id": 446,
    "AddressCountryId": 108,
    "Name": "Benevento Province",
    "StateCode": "BN",
    "Latitude": "41.20350930",
    "Longitude": "14.75209390"
  },
  {
    "Id": 447,
    "AddressCountryId": 124,
    "Name": "Benghazi",
    "StateCode": "BA",
    "Latitude": "32.11942420",
    "Longitude": "20.08679090"
  },
  {
    "Id": 448,
    "AddressCountryId": 103,
    "Name": "Bengkulu",
    "StateCode": "BE",
    "Latitude": "-3.79284510",
    "Longitude": "102.26076410"
  },
  {
    "Id": 449,
    "AddressCountryId": 7,
    "Name": "Bengo Province",
    "StateCode": "BGO",
    "Latitude": "-9.10422570",
    "Longitude": "13.72891670"
  },
  {
    "Id": 450,
    "AddressCountryId": 7,
    "Name": "Benguela Province",
    "StateCode": "BGU",
    "Latitude": "-12.80037440",
    "Longitude": "13.91439900"
  },
  {
    "Id": 451,
    "AddressCountryId": 174,
    "Name": "Benguet",
    "StateCode": "BEN",
    "Latitude": "16.55772570",
    "Longitude": "120.80394740"
  },
  {
    "Id": 452,
    "AddressCountryId": 4,
    "Name": "Béni Abbès",
    "StateCode": "53",
    "Latitude": "30.08310420",
    "Longitude": "-2.83450520"
  },
  {
    "Id": 453,
    "AddressCountryId": 26,
    "Name": "Beni Department",
    "StateCode": "B",
    "Latitude": "-14.37827470",
    "Longitude": "-65.09577920"
  },
  {
    "Id": 454,
    "AddressCountryId": 149,
    "Name": "Béni Mellal",
    "StateCode": "BEM",
    "Latitude": "32.34244300",
    "Longitude": "-6.37579900"
  },
  {
    "Id": 455,
    "AddressCountryId": 149,
    "Name": "Béni Mellal-Khénifra",
    "StateCode": "05",
    "Latitude": "32.57191840",
    "Longitude": "-6.06791940"
  },
  {
    "Id": 456,
    "AddressCountryId": 66,
    "Name": "Beni Suef",
    "StateCode": "BNS",
    "Latitude": "28.89388370",
    "Longitude": "31.44561790"
  },
  {
    "Id": 457,
    "AddressCountryId": 71,
    "Name": "Benishangul-Gumuz Region",
    "StateCode": "BE",
    "Latitude": "10.78028890",
    "Longitude": "35.56578620"
  },
  {
    "Id": 458,
    "AddressCountryId": 149,
    "Name": "Benslimane",
    "StateCode": "BES",
    "Latitude": "33.61896980",
    "Longitude": "-7.13055360"
  },
  {
    "Id": 459,
    "AddressCountryId": 160,
    "Name": "Benue",
    "StateCode": "BE",
    "Latitude": "7.33690240",
    "Longitude": "8.74036870"
  },
  {
    "Id": 460,
    "AddressCountryId": 121,
    "Name": "Beqaa Governorate",
    "StateCode": "BI",
    "Latitude": "33.84626620",
    "Longitude": "35.90194890"
  },
  {
    "Id": 461,
    "AddressCountryId": 147,
    "Name": "Berane Municipality",
    "StateCode": "03",
    "Latitude": "42.82572890",
    "Longitude": "19.90205090"
  },
  {
    "Id": 462,
    "AddressCountryId": 3,
    "Name": "Berat County",
    "StateCode": "01",
    "Latitude": "40.69530120",
    "Longitude": "20.04496620"
  },
  {
    "Id": 463,
    "AddressCountryId": 3,
    "Name": "Berat District",
    "StateCode": "BR",
    "Latitude": "40.70863770",
    "Longitude": "19.94373140"
  },
  {
    "Id": 464,
    "AddressCountryId": 122,
    "Name": "Berea District",
    "StateCode": "D",
    "Latitude": "41.36616140",
    "Longitude": "-81.85430260"
  },
  {
    "Id": 465,
    "AddressCountryId": 149,
    "Name": "Berkane",
    "StateCode": "BER",
    "Latitude": "34.88408760",
    "Longitude": "-2.34188700"
  },
  {
    "Id": 466,
    "AddressCountryId": 83,
    "Name": "Berlin",
    "StateCode": "BE",
    "Latitude": "52.52000660",
    "Longitude": "13.40495400"
  },
  {
    "Id": 467,
    "AddressCountryId": 216,
    "Name": "Bern",
    "StateCode": "BE",
    "Latitude": "46.79886210",
    "Longitude": "7.70807010"
  },
  {
    "Id": 468,
    "AddressCountryId": 58,
    "Name": "Beroun",
    "StateCode": "202",
    "Latitude": "49.95734280",
    "Longitude": "13.98407150"
  },
  {
    "Id": 469,
    "AddressCountryId": 129,
    "Name": "Berovo Municipality",
    "StateCode": "03",
    "Latitude": "41.66619290",
    "Longitude": "22.76288300"
  },
  {
    "Id": 470,
    "AddressCountryId": 149,
    "Name": "Berrechid",
    "StateCode": "BRR",
    "Latitude": "33.26025230",
    "Longitude": "-7.59848370"
  },
  {
    "Id": 471,
    "AddressCountryId": 222,
    "Name": "Berry Islands",
    "StateCode": "BY",
    "Latitude": "25.62500420",
    "Longitude": "-77.82522030"
  },
  {
    "Id": 472,
    "AddressCountryId": 120,
    "Name": "Beverīna Municipality",
    "StateCode": "017",
    "Latitude": "57.51971090",
    "Longitude": "25.60736540"
  },
  {
    "Id": 473,
    "AddressCountryId": 93,
    "Name": "Beyla Prefecture",
    "StateCode": "BE",
    "Latitude": "8.91981780",
    "Longitude": "-8.30884410"
  },
  {
    "Id": 474,
    "AddressCountryId": 16,
    "Name": "Beylagan District",
    "StateCode": "BEY",
    "Latitude": "39.77230730",
    "Longitude": "47.61541660"
  },
  {
    "Id": 475,
    "AddressCountryId": 154,
    "Name": "Bheri Zone",
    "StateCode": "BH",
    "Latitude": "28.51745600",
    "Longitude": "81.77870210"
  },
  {
    "Id": 476,
    "AddressCountryId": 18,
    "Name": "Bhola District",
    "StateCode": "07",
    "Latitude": "22.17853150",
    "Longitude": "90.71010230"
  },
  {
    "Id": 477,
    "AddressCountryId": 174,
    "Name": "Bicol Region",
    "StateCode": "05",
    "Latitude": "13.42098850",
    "Longitude": "123.41367360"
  },
  {
    "Id": 478,
    "AddressCountryId": 7,
    "Name": "Bié Province",
    "StateCode": "BIE",
    "Latitude": "-12.57279070",
    "Longitude": "17.66888700"
  },
  {
    "Id": 479,
    "AddressCountryId": 102,
    "Name": "Bihar",
    "StateCode": "BR",
    "Latitude": "25.09607420",
    "Longitude": "85.31311940"
  },
  {
    "Id": 480,
    "AddressCountryId": 181,
    "Name": "Bihor County",
    "StateCode": "BH",
    "Latitude": "47.01575160",
    "Longitude": "22.17226600"
  },
  {
    "Id": 481,
    "AddressCountryId": 147,
    "Name": "Bijelo Polje Municipality",
    "StateCode": "04",
    "Latitude": "43.08465260",
    "Longitude": "19.71154720"
  },
  {
    "Id": 482,
    "AddressCountryId": 16,
    "Name": "Bilasuvar District",
    "StateCode": "BIL",
    "Latitude": "39.45988330",
    "Longitude": "48.55098130"
  },
  {
    "Id": 483,
    "AddressCountryId": 228,
    "Name": "Bilecik",
    "StateCode": "11",
    "Latitude": "40.05665550",
    "Longitude": "30.06652360"
  },
  {
    "Id": 484,
    "AddressCountryId": 174,
    "Name": "Biliran",
    "StateCode": "BIL",
    "Latitude": "11.58331520",
    "Longitude": "124.46418480"
  },
  {
    "Id": 485,
    "AddressCountryId": 222,
    "Name": "Bimini",
    "StateCode": "BI",
    "Latitude": "24.64153250",
    "Longitude": "-79.85062260"
  },
  {
    "Id": 486,
    "AddressCountryId": 228,
    "Name": "Bingöl",
    "StateCode": "12",
    "Latitude": "39.06263540",
    "Longitude": "40.76960950"
  },
  {
    "Id": 487,
    "AddressCountryId": 243,
    "Name": "Bình Định",
    "StateCode": "31",
    "Latitude": "14.16653240",
    "Longitude": "108.90268300"
  },
  {
    "Id": 488,
    "AddressCountryId": 243,
    "Name": "Bình Dương",
    "StateCode": "57",
    "Latitude": "11.32540240",
    "Longitude": "106.47701700"
  },
  {
    "Id": 489,
    "AddressCountryId": 243,
    "Name": "Bình Phước",
    "StateCode": "58",
    "Latitude": "11.75118940",
    "Longitude": "106.72346390"
  },
  {
    "Id": 490,
    "AddressCountryId": 243,
    "Name": "Bình Thuận",
    "StateCode": "40",
    "Latitude": "11.09037030",
    "Longitude": "108.07207810"
  },
  {
    "Id": 491,
    "AddressCountryId": 44,
    "Name": "Biobío",
    "StateCode": "BI",
    "Latitude": "-37.44644280",
    "Longitude": "-72.14161320"
  },
  {
    "Id": 492,
    "AddressCountryId": 68,
    "Name": "Bioko Norte Province",
    "StateCode": "BN",
    "Latitude": "3.65950720",
    "Longitude": "8.79218360"
  },
  {
    "Id": 493,
    "AddressCountryId": 68,
    "Name": "Bioko Sur Province",
    "StateCode": "BS",
    "Latitude": "3.42097850",
    "Longitude": "8.61606740"
  },
  {
    "Id": 494,
    "AddressCountryId": 94,
    "Name": "Biombo Region",
    "StateCode": "BM",
    "Latitude": "11.85290610",
    "Longitude": "-15.73511710"
  },
  {
    "Id": 495,
    "AddressCountryId": 135,
    "Name": "Birgu",
    "StateCode": "03",
    "Latitude": "35.88792140",
    "Longitude": "14.52256200"
  },
  {
    "Id": 496,
    "AddressCountryId": 135,
    "Name": "Birkirkara",
    "StateCode": "04",
    "Latitude": "35.89547060",
    "Longitude": "14.46650720"
  },
  {
    "Id": 497,
    "AddressCountryId": 235,
    "Name": "Birmingham",
    "StateCode": "BIR",
    "Latitude": "33.51858920",
    "Longitude": "-86.81035670"
  },
  {
    "Id": 498,
    "AddressCountryId": 126,
    "Name": "Birštonas Municipality",
    "StateCode": "05",
    "Latitude": "54.56696640",
    "Longitude": "24.00930980"
  },
  {
    "Id": 499,
    "AddressCountryId": 126,
    "Name": "Biržai District Municipality",
    "StateCode": "06",
    "Latitude": "56.20177190",
    "Longitude": "24.75601180"
  },
  {
    "Id": 500,
    "AddressCountryId": 135,
    "Name": "Birżebbuġa",
    "StateCode": "05",
    "Latitude": "35.81359890",
    "Longitude": "14.52474630"
  },
  {
    "Id": 501,
    "AddressCountryId": 118,
    "Name": "Bishkek",
    "StateCode": "GB",
    "Latitude": "42.87462120",
    "Longitude": "74.56976170"
  },
  {
    "Id": 502,
    "AddressCountryId": 4,
    "Name": "Biskra",
    "StateCode": "07",
    "Latitude": "34.84494370",
    "Longitude": "5.72485670"
  },
  {
    "Id": 503,
    "AddressCountryId": 202,
    "Name": "Bistrica ob Sotli Municipality",
    "StateCode": "149",
    "Latitude": "46.05655790",
    "Longitude": "15.66259470"
  },
  {
    "Id": 504,
    "AddressCountryId": 181,
    "Name": "Bistrița-Năsăud County",
    "StateCode": "BN",
    "Latitude": "47.24861070",
    "Longitude": "24.53228140"
  },
  {
    "Id": 505,
    "AddressCountryId": 228,
    "Name": "Bitlis",
    "StateCode": "13",
    "Latitude": "38.65231330",
    "Longitude": "42.42020280"
  },
  {
    "Id": 506,
    "AddressCountryId": 129,
    "Name": "Bitola Municipality",
    "StateCode": "04",
    "Latitude": "41.03633020",
    "Longitude": "21.33219740"
  },
  {
    "Id": 507,
    "AddressCountryId": 227,
    "Name": "Bizerte Governorate",
    "StateCode": "23",
    "Latitude": "37.16093970",
    "Longitude": "9.63413500"
  },
  {
    "Id": 508,
    "AddressCountryId": 54,
    "Name": "Bjelovar-Bilogora County",
    "StateCode": "07",
    "Latitude": "45.89879720",
    "Longitude": "16.84230930"
  },
  {
    "Id": 509,
    "AddressCountryId": 222,
    "Name": "Black Point",
    "StateCode": "BP",
    "Latitude": "41.39510240",
    "Longitude": "-71.46505560"
  },
  {
    "Id": 510,
    "AddressCountryId": 235,
    "Name": "Blackburn with Darwen",
    "StateCode": "BBD",
    "Latitude": "53.69575220",
    "Longitude": "-2.46829850"
  },
  {
    "Id": 511,
    "AddressCountryId": 235,
    "Name": "Blackpool",
    "StateCode": "BPL",
    "Latitude": "53.81750530",
    "Longitude": "-3.03567480"
  },
  {
    "Id": 512,
    "AddressCountryId": 235,
    "Name": "Blaenau Gwent County Borough",
    "StateCode": "BGW",
    "Latitude": "51.78757790",
    "Longitude": "-3.20439310"
  },
  {
    "Id": 513,
    "AddressCountryId": 34,
    "Name": "Blagoevgrad Province",
    "StateCode": "01",
    "Latitude": "42.02086140",
    "Longitude": "23.09433560"
  },
  {
    "Id": 514,
    "AddressCountryId": 58,
    "Name": "Blansko",
    "StateCode": "641",
    "Latitude": "49.36485020",
    "Longitude": "16.64775520"
  },
  {
    "Id": 515,
    "AddressCountryId": 131,
    "Name": "Blantyre District",
    "StateCode": "BL",
    "Latitude": "-15.67785410",
    "Longitude": "34.95066250"
  },
  {
    "Id": 516,
    "AddressCountryId": 202,
    "Name": "Bled Municipality",
    "StateCode": "003",
    "Latitude": "46.36832660",
    "Longitude": "14.11457980"
  },
  {
    "Id": 517,
    "AddressCountryId": 215,
    "Name": "Blekinge",
    "StateCode": "K",
    "Latitude": "56.27838370",
    "Longitude": "15.01800580"
  },
  {
    "Id": 518,
    "AddressCountryId": 4,
    "Name": "Blida",
    "StateCode": "09",
    "Latitude": "36.53112300",
    "Longitude": "2.89762540"
  },
  {
    "Id": 519,
    "AddressCountryId": 202,
    "Name": "Bloke Municipality",
    "StateCode": "150",
    "Latitude": "45.77281410",
    "Longitude": "14.50634590"
  },
  {
    "Id": 520,
    "AddressCountryId": 211,
    "Name": "Blue Nile",
    "StateCode": "NB",
    "Latitude": "47.59867300",
    "Longitude": "-122.33441900"
  },
  {
    "Id": 521,
    "AddressCountryId": 40,
    "Name": "Boa Vista",
    "StateCode": "BV",
    "Latitude": "38.74346600",
    "Longitude": "-120.73042970"
  },
  {
    "Id": 522,
    "AddressCountryId": 158,
    "Name": "Boaco",
    "StateCode": "BO",
    "Latitude": "12.46928400",
    "Longitude": "-85.66146820"
  },
  {
    "Id": 523,
    "AddressCountryId": 64,
    "Name": "Bobonaro Municipality",
    "StateCode": "BO",
    "Latitude": "-8.96554060",
    "Longitude": "125.25879640"
  },
  {
    "Id": 524,
    "AddressCountryId": 170,
    "Name": "Bocas del Toro Province",
    "StateCode": "1",
    "Latitude": "9.41655210",
    "Longitude": "-82.52077870"
  },
  {
    "Id": 525,
    "AddressCountryId": 153,
    "Name": "Boe District",
    "StateCode": "06",
    "Latitude": "39.07327760",
    "Longitude": "-94.57104980"
  },
  {
    "Id": 526,
    "AddressCountryId": 86,
    "Name": "Boeotia Regional Unit",
    "StateCode": "03",
    "Latitude": "38.36636640",
    "Longitude": "23.09650640"
  },
  {
    "Id": 527,
    "AddressCountryId": 93,
    "Name": "Boffa Prefecture",
    "StateCode": "BF",
    "Latitude": "10.18082540",
    "Longitude": "-14.03916150"
  },
  {
    "Id": 528,
    "AddressCountryId": 129,
    "Name": "Bogdanci Municipality",
    "StateCode": "05",
    "Latitude": "41.18696160",
    "Longitude": "22.59602680"
  },
  {
    "Id": 529,
    "AddressCountryId": 48,
    "Name": "Bogotá D.C.",
    "StateCode": "DC",
    "Latitude": "4.28204150",
    "Longitude": "-74.50270420"
  },
  {
    "Id": 530,
    "AddressCountryId": 129,
    "Name": "Bogovinje Municipality",
    "StateCode": "06",
    "Latitude": "41.92363710",
    "Longitude": "20.91638870"
  },
  {
    "Id": 531,
    "AddressCountryId": 18,
    "Name": "Bogra District",
    "StateCode": "03",
    "Latitude": "24.85104020",
    "Longitude": "89.36972250"
  },
  {
    "Id": 532,
    "AddressCountryId": 202,
    "Name": "Bohinj Municipality",
    "StateCode": "004",
    "Latitude": "46.30056520",
    "Longitude": "13.94271950"
  },
  {
    "Id": 533,
    "AddressCountryId": 174,
    "Name": "Bohol",
    "StateCode": "BOH",
    "Latitude": "9.84999110",
    "Longitude": "124.14354270"
  },
  {
    "Id": 534,
    "AddressCountryId": 93,
    "Name": "Boké Prefecture",
    "StateCode": "BK",
    "Latitude": "11.08473790",
    "Longitude": "-14.37919120"
  },
  {
    "Id": 535,
    "AddressCountryId": 93,
    "Name": "Boké Region",
    "StateCode": "B",
    "Latitude": "11.18646720",
    "Longitude": "-14.10013260"
  },
  {
    "Id": 536,
    "AddressCountryId": 119,
    "Name": "Bokeo Province",
    "StateCode": "BK",
    "Latitude": "20.28726620",
    "Longitude": "100.70978670"
  },
  {
    "Id": 537,
    "AddressCountryId": 94,
    "Name": "Bolama Region",
    "StateCode": "BL",
    "Latitude": "11.14805910",
    "Longitude": "-16.13457050"
  },
  {
    "Id": 538,
    "AddressCountryId": 119,
    "Name": "Bolikhamsai Province",
    "StateCode": "BL",
    "Latitude": "18.43629240",
    "Longitude": "104.47233010"
  },
  {
    "Id": 539,
    "AddressCountryId": 48,
    "Name": "Bolívar",
    "StateCode": "BOL",
    "Latitude": "8.67043820",
    "Longitude": "-74.03001220"
  },
  {
    "Id": 540,
    "AddressCountryId": 65,
    "Name": "Bolívar",
    "StateCode": "B",
    "Latitude": "-1.70958280",
    "Longitude": "-79.04504290"
  },
  {
    "Id": 541,
    "AddressCountryId": 242,
    "Name": "Bolívar",
    "StateCode": "F",
    "Latitude": "37.61448380",
    "Longitude": "-93.41047490"
  },
  {
    "Id": 542,
    "AddressCountryId": 235,
    "Name": "Bolton",
    "StateCode": "BOL",
    "Latitude": "44.37264760",
    "Longitude": "-72.87876250"
  },
  {
    "Id": 543,
    "AddressCountryId": 228,
    "Name": "Bolu",
    "StateCode": "14",
    "Latitude": "40.57597660",
    "Longitude": "31.57880860"
  },
  {
    "Id": 544,
    "AddressCountryId": 114,
    "Name": "Bomet",
    "StateCode": "02",
    "Latitude": "-0.80150090",
    "Longitude": "35.30272260"
  },
  {
    "Id": 545,
    "AddressCountryId": 123,
    "Name": "Bomi County",
    "StateCode": "BM",
    "Latitude": "6.75629260",
    "Longitude": "-10.84514670"
  },
  {
    "Id": 546,
    "AddressCountryId": 155,
    "Name": "Bonaire",
    "StateCode": "BQ1",
    "Latitude": "12.20189020",
    "Longitude": "-68.26238220"
  },
  {
    "Id": 547,
    "AddressCountryId": 123,
    "Name": "Bong County",
    "StateCode": "BG",
    "Latitude": "6.82950190",
    "Longitude": "-9.36730840"
  },
  {
    "Id": 548,
    "AddressCountryId": 84,
    "Name": "Bono",
    "StateCode": "BO",
    "Latitude": "7.65000000",
    "Longitude": "-2.50000000"
  },
  {
    "Id": 549,
    "AddressCountryId": 84,
    "Name": "Bono East",
    "StateCode": "BE",
    "Latitude": "7.75000000",
    "Longitude": "-1.05000000"
  },
  {
    "Id": 550,
    "AddressCountryId": 172,
    "Name": "Boquerón Department",
    "StateCode": "19",
    "Latitude": "-21.74492540",
    "Longitude": "-60.95400730"
  },
  {
    "Id": 551,
    "AddressCountryId": 196,
    "Name": "Bor District",
    "StateCode": "14",
    "Latitude": "44.06989180",
    "Longitude": "22.09850860"
  },
  {
    "Id": 552,
    "AddressCountryId": 4,
    "Name": "Bordj Baji Mokhtar",
    "StateCode": "52",
    "Latitude": "22.96633500",
    "Longitude": "-3.94727320"
  },
  {
    "Id": 553,
    "AddressCountryId": 4,
    "Name": "Bordj Bou Arréridj",
    "StateCode": "34",
    "Latitude": "36.07399250",
    "Longitude": "4.76302710"
  },
  {
    "Id": 554,
    "AddressCountryId": 192,
    "Name": "Borgo Maggiore",
    "StateCode": "06",
    "Latitude": "43.95748820",
    "Longitude": "12.45525460"
  },
  {
    "Id": 555,
    "AddressCountryId": 23,
    "Name": "Borgou Department",
    "StateCode": "BO",
    "Latitude": "9.53408640",
    "Longitude": "2.77798130"
  },
  {
    "Id": 556,
    "AddressCountryId": 43,
    "Name": "Borkou",
    "StateCode": "BO",
    "Latitude": "17.86888450",
    "Longitude": "18.80761950"
  },
  {
    "Id": 557,
    "AddressCountryId": 160,
    "Name": "Borno",
    "StateCode": "BO",
    "Latitude": "11.88463560",
    "Longitude": "13.15196650"
  },
  {
    "Id": 558,
    "AddressCountryId": 202,
    "Name": "Borovnica Municipality",
    "StateCode": "005",
    "Latitude": "45.90445250",
    "Longitude": "14.38241890"
  },
  {
    "Id": 559,
    "AddressCountryId": 100,
    "Name": "Borsod-Abaúj-Zemplén County",
    "StateCode": "BZ",
    "Latitude": "48.29394010",
    "Longitude": "20.69341120"
  },
  {
    "Id": 560,
    "AddressCountryId": 129,
    "Name": "Bosilovo Municipality",
    "StateCode": "07",
    "Latitude": "41.49048640",
    "Longitude": "22.78671740"
  },
  {
    "Id": 561,
    "AddressCountryId": 28,
    "Name": "Bosnian Podrinje Canton",
    "StateCode": "05",
    "Latitude": "43.68749000",
    "Longitude": "18.82443940"
  },
  {
    "Id": 562,
    "AddressCountryId": 181,
    "Name": "Botoșani County",
    "StateCode": "BT",
    "Latitude": "47.89240420",
    "Longitude": "26.75917810"
  },
  {
    "Id": 563,
    "AddressCountryId": 76,
    "Name": "Bouches-du-Rhône",
    "StateCode": "13",
    "Latitude": "43.54038650",
    "Longitude": "4.46138290"
  },
  {
    "Id": 564,
    "AddressCountryId": 35,
    "Name": "Boucle du Mouhoun Region",
    "StateCode": "01",
    "Latitude": "12.41660000",
    "Longitude": "-3.41955270"
  },
  {
    "Id": 565,
    "AddressCountryId": 50,
    "Name": "Bouenza Department",
    "StateCode": "11",
    "Latitude": "-4.11280790",
    "Longitude": "13.72891670"
  },
  {
    "Id": 566,
    "AddressCountryId": 171,
    "Name": "Bougainville",
    "StateCode": "NSB",
    "Latitude": "-6.37539190",
    "Longitude": "155.38071010"
  },
  {
    "Id": 567,
    "AddressCountryId": 35,
    "Name": "Bougouriba Province",
    "StateCode": "BGR",
    "Latitude": "10.87226460",
    "Longitude": "-3.33889170"
  },
  {
    "Id": 568,
    "AddressCountryId": 4,
    "Name": "Bouïra",
    "StateCode": "10",
    "Latitude": "36.36918460",
    "Longitude": "3.90061940"
  },
  {
    "Id": 569,
    "AddressCountryId": 149,
    "Name": "Boujdour (EH)",
    "StateCode": "BOD",
    "Latitude": "26.12524930",
    "Longitude": "-14.48473470"
  },
  {
    "Id": 570,
    "AddressCountryId": 149,
    "Name": "Boulemane",
    "StateCode": "BOM",
    "Latitude": "33.36251590",
    "Longitude": "-4.73033970"
  },
  {
    "Id": 571,
    "AddressCountryId": 35,
    "Name": "Boulgou",
    "StateCode": "BLG",
    "Latitude": "11.43367660",
    "Longitude": "-0.37483540"
  },
  {
    "Id": 572,
    "AddressCountryId": 4,
    "Name": "Boumerdès",
    "StateCode": "35",
    "Latitude": "36.68395590",
    "Longitude": "3.62178020"
  },
  {
    "Id": 573,
    "AddressCountryId": 76,
    "Name": "Bourgogne-Franche-Comté",
    "StateCode": "BFC",
    "Latitude": "47.28051270",
    "Longitude": "4.99943720"
  },
  {
    "Id": 574,
    "AddressCountryId": 235,
    "Name": "Bournemouth",
    "StateCode": "BMH",
    "Latitude": "50.71916400",
    "Longitude": "-1.88076900"
  },
  {
    "Id": 575,
    "AddressCountryId": 202,
    "Name": "Bovec Municipality",
    "StateCode": "006",
    "Latitude": "46.33804950",
    "Longitude": "13.55241740"
  },
  {
    "Id": 576,
    "AddressCountryId": 48,
    "Name": "Boyacá",
    "StateCode": "BOY",
    "Latitude": "5.45451100",
    "Longitude": "-73.36200300"
  },
  {
    "Id": 577,
    "AddressCountryId": 235,
    "Name": "Bracknell Forest",
    "StateCode": "BRC",
    "Latitude": "51.41538280",
    "Longitude": "-0.75364950"
  },
  {
    "Id": 578,
    "AddressCountryId": 235,
    "Name": "Bradford",
    "StateCode": "BRD",
    "Latitude": "53.79598400",
    "Longitude": "-1.75939800"
  },
  {
    "Id": 579,
    "AddressCountryId": 177,
    "Name": "Braga",
    "StateCode": "03",
    "Latitude": "41.55038800",
    "Longitude": "-8.42613010"
  },
  {
    "Id": 580,
    "AddressCountryId": 177,
    "Name": "Bragança",
    "StateCode": "04",
    "Latitude": "41.80616520",
    "Longitude": "-6.75674270"
  },
  {
    "Id": 581,
    "AddressCountryId": 18,
    "Name": "Brahmanbaria District",
    "StateCode": "04",
    "Latitude": "23.96081810",
    "Longitude": "91.11150140"
  },
  {
    "Id": 582,
    "AddressCountryId": 181,
    "Name": "Braila",
    "StateCode": "BR",
    "Latitude": "45.26524630",
    "Longitude": "27.95947140"
  },
  {
    "Id": 583,
    "AddressCountryId": 139,
    "Name": "Brakna Region",
    "StateCode": "05",
    "Latitude": "17.23175610",
    "Longitude": "-13.17403480"
  },
  {
    "Id": 584,
    "AddressCountryId": 83,
    "Name": "Brandenburg",
    "StateCode": "BB",
    "Latitude": "52.41252870",
    "Longitude": "12.53164440"
  },
  {
    "Id": 585,
    "AddressCountryId": 196,
    "Name": "Braničevo District",
    "StateCode": "11",
    "Latitude": "44.69822460",
    "Longitude": "21.54467750"
  },
  {
    "Id": 586,
    "AddressCountryId": 202,
    "Name": "Braslovče Municipality",
    "StateCode": "151",
    "Latitude": "46.28361920",
    "Longitude": "15.04183200"
  },
  {
    "Id": 587,
    "AddressCountryId": 181,
    "Name": "Brașov County",
    "StateCode": "BV",
    "Latitude": "45.77818440",
    "Longitude": "25.22258000"
  },
  {
    "Id": 588,
    "AddressCountryId": 201,
    "Name": "Bratislava Region",
    "StateCode": "BL",
    "Latitude": "48.31183040",
    "Longitude": "17.19732990"
  },
  {
    "Id": 589,
    "AddressCountryId": 40,
    "Name": "Brava",
    "StateCode": "BR",
    "Latitude": "40.98977780",
    "Longitude": "-73.68357150"
  },
  {
    "Id": 590,
    "AddressCountryId": 50,
    "Name": "Brazzaville",
    "StateCode": "BZV",
    "Latitude": "-4.26335970",
    "Longitude": "15.24288530"
  },
  {
    "Id": 591,
    "AddressCountryId": 28,
    "Name": "Brčko District",
    "StateCode": "BRC",
    "Latitude": "44.84059440",
    "Longitude": "18.74215300"
  },
  {
    "Id": 592,
    "AddressCountryId": 202,
    "Name": "Brda Municipality",
    "StateCode": "007",
    "Latitude": "45.99756520",
    "Longitude": "13.52704740"
  },
  {
    "Id": 593,
    "AddressCountryId": 58,
    "Name": "Břeclav",
    "StateCode": "644",
    "Latitude": "48.75314000",
    "Longitude": "16.88251690"
  },
  {
    "Id": 594,
    "AddressCountryId": 83,
    "Name": "Bremen",
    "StateCode": "HB",
    "Latitude": "53.07929620",
    "Longitude": "8.80169360"
  },
  {
    "Id": 595,
    "AddressCountryId": 20,
    "Name": "Brest Region",
    "StateCode": "BR",
    "Latitude": "52.52966410",
    "Longitude": "25.46064800"
  },
  {
    "Id": 596,
    "AddressCountryId": 76,
    "Name": "Bretagne",
    "StateCode": "BRE",
    "Latitude": "48.20204710",
    "Longitude": "-2.93264350"
  },
  {
    "Id": 597,
    "AddressCountryId": 202,
    "Name": "Brežice Municipality",
    "StateCode": "009",
    "Latitude": "45.90410960",
    "Longitude": "15.59436390"
  },